nom_fichier,station,id,longitude,latitude,altitude,departement
ABBEVILLE,ABBEVILLE,80001005.0,1.835,50.106667,68.0,80.0
ACHERES,ACHERES,78005002.0,2.126,48.983167,31.0,78.0
AGENLA_GARENNE,AGENLA_GARENNE,47091001.0,0.594667,44.172167,58.0,47.0
AHUN_LYCEE,AHUN_LYCEE,23001001.0,2.029833,46.093333,460.0,23.0
AIXLES_MILLES,AIXLES_MILLES,13001006.0,5.365667,43.504667,106.0,13.0
AIX_EN_PROVENCE,AIX_EN_PROVENCE,13001009.0,5.4245,43.5295,173.0,13.0
AJACCIO,AJACCIO,20004002.0,8.792667,41.918,5.0,20.0
ALAIGNE,ALAIGNE,11004001.0,2.098333,43.1125,293.0,11.0
ALBA_SA,ALBA_SA,7005002.0,4.582833,44.538833,223.0,7.0
ALBERTVILLE_JO,ALBERTVILLE_JO,73011004.0,6.371833,45.662333,332.0,73.0
ALBI,ALBI,81004006.0,2.141667,43.928333,170.0,81.0
ALENCON,ALENCON,61001001.0,0.110167,48.4455,143.0,61.0
ALISTRO,ALISTRO,20303002.0,9.5415,42.259667,65.0,20.0
ALTIER,ALTIER,48004001.0,3.852,44.494,900.0,48.0
AMBERIEU,AMBERIEU,1089001.0,5.329333,45.9765,250.0,1.0
AMBOISE_LYCEE,AMBOISE_LYCEE,37003004.0,0.977,47.394167,116.0,37.0
AMIENSGLISY,AMIENSGLISY,80379002.0,2.3825,49.872,60.0,80.0
AMILLY,AMILLY,45004001.0,2.728,47.962167,91.0,45.0
ANGRIE,ANGRIE,49008001.0,-0.970333,47.561667,65.0,49.0
ANZATLELUGUET_SAPC,ANZATLELUGUET_SAPC,63006002.0,3.016,45.320167,1270.0,63.0
ARBOIS_SAPC,ARBOIS_SAPC,39013004.0,5.740167,46.896,313.0,39.0
ARBRISSEL,ARBRISSEL,35005001.0,-1.297333,47.927333,75.0,35.0
ARCHIGNAT,ARCHIGNAT,3005001.0,2.433667,46.359333,370.0,3.0
ARGENTAN,ARGENTAN,61006005.0,0.0115,48.718167,170.0,61.0
ARGENTON,ARGENTON,36006001.0,1.518333,46.586667,108.0,36.0
ARLES,ARLES,13004003.0,4.693833,43.51,1.0,13.0
ARNAY_SAPC,ARNAY_SAPC,21567001.0,4.498667,47.124833,396.0,21.0
ARQUETTESENVAL,ARQUETTESENVAL,11016003.0,2.503333,43.100833,240.0,11.0
ARZAL,ARZAL,56004001.0,-2.382667,47.512667,26.0,56.0
AUBAGNE,AUBAGNE,13005001.0,5.578333,43.29,131.0,13.0
AUBIGNYSURNERE,AUBIGNYSURNERE,18015003.0,2.427333,47.4995,176.0,18.0
AUBREVILLE_SAPC,AUBREVILLE_SAPC,55014001.0,5.0935,49.133833,202.0,55.0
AUBUSSON_SAPC,AUBUSSON_SAPC,23008004.0,2.187833,45.957833,486.0,23.0
AUCH,AUCH,32013005.0,0.601167,43.689,122.0,32.0
AUPS,AUPS,83007004.0,6.1875,43.641,497.0,83.0
AURAY,AURAY,56007001.0,-2.971,47.659167,26.0,56.0
AURILLAC,AURILLAC,15014004.0,2.419167,44.8915,632.0,15.0
AUTUN,AUTUN,71014003.0,4.301667,46.951667,360.0,71.0
AUXERRE,AUXERRE,89346001.0,3.5455,47.8015,207.0,89.0
AUZANCES_SAPC,AUZANCES_SAPC,23013001.0,2.489333,46.0215,564.0,23.0
AVIZECIVC,AVIZECIVC,51029004.0,4.01,48.978,175.0,51.0
AVORD,AVORD,18092001.0,2.642167,47.052167,175.0,18.0
BAIGNES_BEL_AIR,BAIGNES_BEL_AIR,16025003.0,-0.2695,45.378333,70.0,16.0
BASTIA,BASTIA,20148001.0,9.485167,42.540667,10.0,20.0
BAZUSAURE,BAZUSAURE,65075001.0,0.3485,42.857833,767.0,65.0
BEAUBERY,BEAUBERY,71025001.0,4.400167,46.406,465.0,71.0
BEAUCOUZE,BEAUCOUZE,49020001.0,-0.614333,47.479,50.0,49.0
BEAUFORTSGERV,BEAUFORTSGERV,26035001.0,5.139,44.778,379.0,26.0
BEAUMONT_SAPC,BEAUMONT_SAPC,37023002.0,1.211667,47.177167,126.0,37.0
BEAUVAISTILLE,BEAUVAISTILLE,60639001.0,2.127167,49.4465,89.0,60.0
BELLAC,BELLAC,87011002.0,1.052667,46.120333,241.0,87.0
BELLEGARDE,BELLEGARDE,23020001.0,2.3,45.978333,588.0,23.0
BELLEGARDEEND,BELLEGARDEEND,26047001.0,5.454333,44.535167,1017.0,26.0
BERGERAC,BERGERAC,24037002.0,0.483333,44.851667,51.0,24.0
BERNAY,BERNAY,72033002.0,-0.058333,48.071667,77.0,72.0
BERNIERES,BERNIERES,14066001.0,-0.430667,49.334,2.0,14.0
BESANCON,BESANCON,25056001.0,5.988833,47.249,307.0,25.0
BESIGNAN,BESIGNAN,26050001.0,5.317,44.3205,556.0,26.0
BESSEY,BESSEY,21065001.0,4.743167,47.086,593.0,21.0
BESSINES,BESSINES,87014005.0,1.376,46.112667,301.0,87.0
BIARRITZPAYSBASQUE,BIARRITZPAYSBASQUE,64024001.0,-1.534333,43.469333,71.0,64.0
BISCARROSSE,BISCARROSSE,40046001.0,-1.2475,44.431667,35.0,40.0
BLACE,BLACE,69023002.0,4.642,46.0345,340.0,69.0
BLANCARCI,BLANCARCI,36018004.0,1.088333,46.625,108.0,36.0
BLOIS,BLOIS,41281001.0,1.212333,47.6785,119.0,41.0
BOIGNEVILLE,BOIGNEVILLE,91069001.0,2.381167,48.3255,115.0,91.0
BONNAT,BONNAT,23025001.0,1.916333,46.315333,382.0,23.0
BONNEVILLE,BONNEVILLE,74042001.0,6.408333,46.078333,447.0,74.0
BORDEAUXMERIGNAC,BORDEAUXMERIGNAC,33281001.0,-0.691333,44.830667,47.0,33.0
BORS,BORS,16052001.0,0.118333,45.346667,94.0,16.0
BOUELLES,BOUELLES,76130001.0,1.5025,49.733167,232.0,76.0
BOULLEVILLE,BOULLEVILLE,27100001.0,0.392833,49.361,122.0,27.0
BOURAIL,BOURAIL,98803001.0,165.493833,-21.554833,25.0,988.0
BOURGANEUF,BOURGANEUF,23030004.0,1.725833,45.942333,513.0,23.0
BOURGARGENTAL,BOURGARGENTAL,42023004.0,4.5735,45.298667,514.0,42.0
BOURGES,BOURGES,18033001.0,2.359833,47.059167,161.0,18.0
BOURGOIN,BOURGOIN,38053001.0,5.265,45.605,254.0,38.0
BOURG_ST_MAURICE,BOURG_ST_MAURICE,73054001.0,6.763333,45.612667,865.0,73.0
BRANCEILLES,BRANCEILLES,19029001.0,1.704833,45.011167,190.0,19.0
BRASPISTOLET_SAPC,BRASPISTOLET_SAPC,97420180.0,55.5875,-20.969,556.0,974.0
BREIL_SUR_ROYA,BREIL_SUR_ROYA,6023004.0,7.513667,43.940167,305.0,6.0
BRESTGUIPAVAS,BRESTGUIPAVAS,29075001.0,-4.391167,48.453833,92.0,29.0
BRINDAS,BRINDAS,69028001.0,4.693167,45.713333,317.0,69.0
BRIVE,BRIVE,19031008.0,1.473333,45.146667,115.0,19.0
BUGEAT,BUGEAT,19033001.0,1.930333,45.602667,694.0,19.0
BUIS_BARONNIES,BUIS_BARONNIES,26063002.0,5.270667,44.277833,390.0,26.0
BURE_LES_TEMPLIERS_SAPC,BURE_LES_TEMPLIERS_SAPC,21116002.0,4.948167,47.7195,461.0,21.0
BUXY,BUXY,71070001.0,4.697667,46.709833,230.0,71.0
CADAUJACINRAE,CADAUJACINRAE,33080001.0,-0.559333,44.752833,20.0,33.0
CADENET,CADENET,84026003.0,5.353,43.718833,152.0,84.0
CAENCARPIQUET,CAENCARPIQUET,14137001.0,-0.456167,49.18,67.0,14.0
CALAISMARCK,CALAISMARCK,62548001.0,1.966667,50.966667,3.0,62.0
CAMPS,CAMPS,19034001.0,1.988333,44.983667,519.0,19.0
CAP_CEPET,CAP_CEPET,83153001.0,5.940833,43.079333,115.0,83.0
CAP_PERTUSATO,CAP_PERTUSATO,20041001.0,9.178333,41.374833,107.0,20.0
CARCASSONNE,CARCASSONNE,11069001.0,2.2955,43.215333,128.0,11.0
CARPENTRAS,CARPENTRAS,84031001.0,5.058333,44.083667,98.0,84.0
CARROS_SAPC,CARROS_SAPC,6033002.0,7.209167,43.786667,78.0,6.0
CASTANET,CASTANET,81061001.0,2.023333,43.986667,275.0,81.0
CASTELNAUDARY,CASTELNAUDARY,11076003.0,1.953333,43.316667,160.0,11.0
CAUSSOLS,CAUSSOLS,6037002.0,6.923167,43.752333,1268.0,6.0
CAVAILLON,CAVAILLON,84035003.0,5.032333,43.8565,70.0,84.0
CAYENNEMATOURY,CAYENNEMATOURY,97307001.0,-52.365333,4.822333,4.0,973.0
CAYENNE_VILLE,CAYENNE_VILLE,97302001.0,-52.318833,4.941,4.0,973.0
CELLESSURDURO,CELLESSURDURO,63066001.0,3.638333,45.886667,670.0,63.0
CELLESSUROURCE,CELLESSUROURCE,10070001.0,4.411333,48.0675,275.0,10.0
CELLIEU,CELLIEU,42032001.0,4.538667,45.533833,493.0,42.0
CESSY,CESSY,1071001.0,6.080333,46.310333,507.0,1.0
CEYZERIAT_SAPC,CEYZERIAT_SAPC,1072001.0,5.287667,46.204333,260.0,1.0
CHABLIS_SAPC,CHABLIS_SAPC,89068001.0,3.791167,47.822,141.0,89.0
CHALMAZEL,CHALMAZEL,42039002.0,3.853167,45.705,855.0,42.0
CHALONCHAMPFO,CHALONCHAMPFO,71081001.0,4.825667,46.827,187.0,71.0
CHALUS_SAPC,CHALUS_SAPC,87032004.0,0.979,45.646167,403.0,87.0
CHAMBERET,CHAMBERET,19036001.0,1.724667,45.573667,444.0,19.0
CHAMBERYAIX,CHAMBERYAIX,73329001.0,5.878,45.641333,235.0,73.0
CHANGIS,CHANGIS,77084001.0,3.011833,48.964667,70.0,77.0
CHANNAY_LATHAN,CHANNAY_LATHAN,37055002.0,0.255333,47.4795,87.0,37.0
CHAPELLEDANG_SAPC,CHAPELLEDANG_SAPC,18047001.0,2.426667,47.373833,190.0,18.0
CHAPELLEGUILLAUME_SAPC,CHAPELLEGUILLAUME_SAPC,28078001.0,0.905833,48.112,197.0,28.0
CHAREILCINTRAT_SAPC,CHAREILCINTRAT_SAPC,3059001.0,3.225667,46.275833,286.0,3.0
CHARGEYLESGRAY,CHARGEYLESGRAY,70132001.0,5.5955,47.507,244.0,70.0
CHARLIEU,CHARLIEU,42052002.0,4.174167,46.164,278.0,42.0
CHARMES_SAPC,CHARMES_SAPC,3061001.0,3.233667,46.0635,330.0,3.0
CHARTRES,CHARTRES,28070001.0,1.501167,48.4605,155.0,28.0
CHASSIRON,CHASSIRON,17323001.0,-1.411667,46.046833,11.0,17.0
CHATEAUDOLONNE,CHATEAUDOLONNE,85060002.0,-1.725833,46.477167,27.0,85.0
CHATEAUDUN,CHATEAUDUN,28198001.0,1.376333,48.061333,126.0,28.0
CHATEAUROUX_DEOLS,CHATEAUROUX_DEOLS,36063001.0,1.741,46.869833,158.0,36.0
CHATEAU_CHINON,CHATEAU_CHINON,58062001.0,3.934333,47.070333,598.0,58.0
CHATILLONCIVC,CHATILLONCIVC,51136003.0,3.7595,49.098667,153.0,51.0
CHAUMONT_SAPC,CHAUMONT_SAPC,55108004.0,5.264667,48.931333,294.0,55.0
CHEILLE,CHEILLE,37067003.0,0.403833,47.260833,60.0,37.0
CHEYLARD_SA,CHEYLARD_SA,7064001.0,4.4375,44.914833,418.0,7.0
CHINON_VITI,CHINON_VITI,37072002.0,0.233833,47.184333,76.0,37.0
CHIROUBLES,CHIROUBLES,69058002.0,4.667167,46.182667,415.0,69.0
CHOLET,CHOLET,49099004.0,-0.891667,46.996667,130.0,49.0
CHUSCLAN,CHUSCLAN,30081001.0,4.7,44.143333,63.0,30.0
CIRFONTAINES_SAPC,CIRFONTAINES_SAPC,52131002.0,5.394667,48.456167,379.0,52.0
CIVRAY,CIVRAY,86078002.0,0.298667,46.160333,143.0,86.0
CIVRAY_METRO,CIVRAY_METRO,,,,,
CLERMONTFD,CLERMONTFD,63113001.0,3.149333,45.786833,331.0,63.0
COGNAC,COGNAC,16089001.0,-0.315833,45.665,30.0,16.0
COGOLIN_SAPC,COGOLIN_SAPC,83042001.0,6.510333,43.261667,31.0,83.0
COLMAR_HOUSS,COLMAR_HOUSS,68066004.0,7.3605,48.1095,192.0,68.0
COLOMBELAFOSSECIVC,COLOMBELAFOSSECIVC,10102001.0,4.779667,48.261667,252.0,10.0
COLOMBIER_VIEUX_SA,COLOMBIER_VIEUX_SA,7069001.0,4.698,45.063667,408.0,7.0
COLTINES,COLTINES,15053001.0,2.990667,45.074667,979.0,15.0
COL_REPUBLIQUE,COL_REPUBLIQUE,42224003.0,4.470833,45.352667,1071.0,42.0
COMBLOUX,COMBLOUX,74083001.0,6.643333,45.898333,940.0,74.0
COMMERVEIL_SAPC,COMMERVEIL_SAPC,72086001.0,0.353667,48.315333,105.0,72.0
COMPSSURARTUBY,COMPSSURARTUBY,83044003.0,6.471333,43.658833,892.0,83.0
CORTE_FDF,CORTE_FDF,20096005.0,9.174333,42.299833,362.0,20.0
COULANS,COULANS,25223002.0,6.0205,47.023333,468.0,25.0
COURNIOU,COURNIOU,34086001.0,2.695333,43.495,501.0,34.0
COURPIERE,COURPIERE,63125001.0,3.533333,45.75,325.0,63.0
COURRENSAN,COURRENSAN,32110002.0,0.242833,43.858167,153.0,32.0
CRUVIERSLASCOURS,CRUVIERSLASCOURS,30100001.0,4.200333,44.0025,103.0,30.0
CUDOT_SAPC,CUDOT_SAPC,89133001.0,3.1775,47.983833,170.0,89.0
CUERS,CUERS,83049005.0,6.131333,43.247667,72.0,83.0
CUNLHAT,CUNLHAT,63132002.0,3.557667,45.6345,700.0,63.0
DAMMARTIN_DDE,DAMMARTIN_DDE,77153003.0,2.704167,49.062167,111.0,77.0
DANNEMARIESUR,DANNEMARIESUR,25195001.0,5.872833,47.201333,267.0,25.0
DAUPHIN,DAUPHIN,4068001.0,5.767167,43.909833,427.0,4.0
DAX,DAX,40088002.0,-1.055,43.706667,15.0,40.0
DEAUX,DEAUX,30101001.0,4.143667,44.071833,185.0,30.0
DECAZEVILLE,DECAZEVILLE,12089001.0,2.255,44.558333,215.0,12.0
DECIZE,DECIZE,58095001.0,3.455,46.818667,192.0,58.0
DEUXVERGES,DEUXVERGES,15060002.0,3.012667,44.8015,1080.0,15.0
DIE,DIE,26113003.0,5.3435,44.767667,384.0,26.0
DIJONLONGVIC,DIJONLONGVIC,21473001.0,5.088333,47.267833,219.0,21.0
DINARD,DINARD,35228001.0,-2.076333,48.584833,65.0,35.0
DONZERE,DONZERE,26116001.0,4.711667,44.443333,90.0,26.0
DOSNON,DOSNON,10130001.0,4.224667,48.609167,115.0,10.0
DOURDAN,DOURDAN,91200002.0,1.993,48.526167,116.0,91.0
DROYES,DROYES,52180002.0,4.700167,48.5065,124.0,52.0
DUMONT_DURVILLE,DUMONT_DURVILLE,98404003.0,140.001,-66.663167,43.0,984.0
DUNSURAURON,DUNSURAURON,18087003.0,2.557833,46.9055,167.0,18.0
DURANCE,DURANCE,47085001.0,0.1625,44.154333,142.0,47.0
DURBANCORBIERES,DURBANCORBIERES,11124003.0,2.819167,42.993167,120.0,11.0
ECHASSIERES_SAPC,ECHASSIERES_SAPC,3108001.0,2.957667,46.191167,650.0,3.0
ECTOT_LES_BAONS,ECTOT_LES_BAONS,76228001.0,0.816667,49.646667,150.0,76.0
EGLETONS,EGLETONS,19073006.0,2.059167,45.398833,610.0,19.0
EPENOY,EPENOY,25219002.0,6.366333,47.127167,752.0,25.0
ERNEE,ERNEE,53096004.0,-0.9625,48.295667,168.0,53.0
ETEAUX,ETEAUX,74116002.0,6.275667,46.063,805.0,74.0
ETOILE,ETOILE,26124001.0,4.8895,44.819,145.0,26.0
EUS,EUS,66074002.0,2.446333,42.630167,321.0,66.0
EVIAN_SA,EVIAN_SA,74119003.0,6.5825,46.382333,725.0,74.0
EVREUXHUEST,EVREUXHUEST,27347001.0,1.221667,49.025,138.0,27.0
EYMOUTIERS,EYMOUTIERS,87064005.0,1.701167,45.733833,557.0,87.0
EYRAGUES,EYRAGUES,13036003.0,4.834833,43.847167,17.0,13.0
FAAA,FAAA,98715002.0,-149.614333,-17.555167,2.0,987.0
FAGNIERESINRAE,FAGNIERESINRAE,51242001.0,4.3085,48.939833,105.0,51.0
FAYETLECHATEA,FAYETLECHATEA,63157001.0,3.429167,45.696667,585.0,63.0
FEINS_SA,FEINS_SA,35110003.0,-1.596833,48.326833,87.0,35.0
FELLETIN,FELLETIN,23079002.0,2.186,45.880167,635.0,23.0
FERRIERELARCON,FERRIERELARCON,37107001.0,0.875,46.9875,116.0,37.0
FERTEHAUTERIVE,FERTEHAUTERIVE,3114001.0,3.330167,46.375333,226.0,3.0
FEURS,FEURS,42094003.0,4.233833,45.7385,347.0,42.0
FIGARI,FIGARI,20114002.0,9.103667,41.505167,20.0,20.0
FIXSTGENEYS,FIXSTGENEYS,43095001.0,3.665,45.145833,1102.0,43.0
FLERS,FLERS,61169003.0,-0.5895,48.75,195.0,61.0
FONDETTES,FONDETTES,37109001.0,0.604167,47.425333,93.0,37.0
FONTAINEDUBER_SAPC,FONTAINEDUBER_SAPC,63263005.0,2.991667,45.7995,971.0,63.0
FONTAINEGUERIN,FONTAINEGUERIN,49138001.0,-0.167833,47.493167,41.0,49.0
FONTENAY,FONTENAY,85092002.0,-0.813333,46.466667,14.0,85.0
FORTDEFRANCE_LOUIS,FORTDEFRANCE_LOUIS,97209018.0,-61.066,14.598333,16.0,972.0
FRANCOISCHOPOT,FRANCOISCHOPOT,97210001.0,-60.919667,14.630333,53.0,972.0
FROTEY_SAPC,FROTEY_SAPC,70261001.0,6.1965,47.639167,360.0,70.0
GAILLAC,GAILLAC,81099002.0,1.898333,43.9,140.0,81.0
GATUZIERES_SAPC,GATUZIERES_SAPC,48069001.0,3.499,44.195333,965.0,48.0
GELLES,GELLES,63163001.0,2.799333,45.7535,784.0,63.0
GENOUILLAC,GENOUILLAC,23089001.0,1.985,46.352333,306.0,23.0
GERMAINECIVC,GERMAINECIVC,51266002.0,4.032333,49.123167,172.0,51.0
GILLOTAEROPORT,GILLOTAEROPORT,97418110.0,55.528667,-20.892167,8.0,974.0
GLANDAGE_SAPC,GLANDAGE_SAPC,26142001.0,5.615167,44.674667,1007.0,26.0
GLORIEUSES,GLORIEUSES,98403001.0,47.289667,-11.582667,3.0,984.0
GONNEVILLE,GONNEVILLE,50209001.0,-1.4635,49.652667,134.0,50.0
GOURDON,GOURDON,46127001.0,1.396667,44.745,260.0,46.0
GOUVILLE,GOUVILLE,50215002.0,-1.606833,49.1075,7.0,50.0
GRAMMOND_SAPC,GRAMMOND_SAPC,42102002.0,4.442833,45.564833,803.0,42.0
GREZENBOUERE,GREZENBOUERE,53110002.0,-0.542333,47.891,93.0,53.0
GROSPIERRES_SA,GROSPIERRES_SA,7101002.0,4.295833,44.4115,107.0,7.0
GROS_PITON_SAINTEROSE,GROS_PITON_SAINTEROSE,97419350.0,55.828833,-21.1795,181.0,974.0
GUERETGRANCHER,GUERETGRANCHER,23096007.0,1.867167,46.160667,546.0,23.0
GUERET_BONGEOT,GUERET_BONGEOT,23096001.0,1.879333,46.1805,402.0,23.0
GUERET_COURTIL,GUERET_COURTIL,23096008.0,1.8545,46.1665,464.0,23.0
GUILLONVILLE_CA28,GUILLONVILLE_CA28,28190001.0,1.666167,48.091333,132.0,28.0
GUISCRIFF_SA,GUISCRIFF_SA,56081003.0,-3.664167,48.05,165.0,56.0
HIHIFO,HIHIFO,98613001.0,-176.194167,-13.239833,30.0,986.0
HIVAOA,HIVAOA,98723001.0,-139.035667,-9.806,51.0,987.0
ILE_ROUSSE,ILE_ROUSSE,20093002.0,8.922667,42.633167,142.0,20.0
ILE_ROYALE,ILE_ROYALE,97304001.0,-52.583333,5.283333,48.0,973.0
ISENBASSIGNY,ISENBASSIGNY,52248001.0,5.45,48.036667,391.0,52.0
ISSANLAS,ISSANLAS,7105001.0,3.981667,44.773167,1215.0,7.0
ISSOIRE,ISSOIRE,63178001.0,3.262333,45.535333,372.0,63.0
ISSOUDUN,ISSOUDUN,36088004.0,1.978,46.9425,138.0,36.0
JALOGNY_SAPC,JALOGNY_SAPC,71240001.0,4.651,46.402167,246.0,71.0
JEULESBOISAUTO,JEULESBOISAUTO,36089003.0,1.798333,46.661667,185.0,36.0
JOIGNY,JOIGNY,89206001.0,3.370833,47.982833,75.0,89.0
JOUELESTOURS,JOUELESTOURS,37122003.0,0.665333,47.337167,93.0,37.0
JOYEUSE,JOYEUSE,7110003.0,4.238333,44.48,160.0,7.0
JUAN_DE_NOVA,JUAN_DE_NOVA,98403002.0,42.712,-17.054667,9.0,984.0
KERGUELEN,KERGUELEN,98404001.0,70.243333,-49.352333,29.0,984.0
KERPERT,KERPERT,22092001.0,-3.147667,48.404,281.0,22.0
KOUROU_CSG,KOUROU_CSG,97304003.0,-52.748,5.209167,17.0,973.0
KOUROU_PLAGE,KOUROU_PLAGE,97304005.0,-52.6405,5.168167,3.0,973.0
KRUTH_SAPC,KRUTH_SAPC,68171002.0,6.955,47.944167,512.0,68.0
LABECEDE_LAURAGAIS_SAPC,LABECEDE_LAURAGAIS_SAPC,11181002.0,2.022167,43.3895,408.0,11.0
LABLACHERE,LABLACHERE,7117002.0,4.208333,44.480833,295.0,7.0
LACAPELLEBIRON,LACAPELLEBIRON,47123002.0,0.900333,44.585667,235.0,47.0
LACAUNE,LACAUNE,81124002.0,2.69,43.706667,820.0,81.0
LAC_AIGUEBELETTE,LAC_AIGUEBELETTE,73191005.0,5.795833,45.564833,375.0,73.0
LAHAS,LAHAS,32182001.0,0.887833,43.5475,251.0,32.0
LALOUVESC,LALOUVESC,7128001.0,4.535,45.117833,1090.0,7.0
LAMENTINAERO,LAMENTINAERO,97213004.0,-60.995667,14.595333,3.0,972.0
LANDESGENUSSON,LANDESGENUSSON,85119001.0,-1.1255,46.968333,100.0,85.0
LANDOSCHARBON,LANDOSCHARBON,43111002.0,3.843667,44.858,1148.0,43.0
LANOEBLANCHE,LANOEBLANCHE,35202001.0,-1.765,47.780167,89.0,35.0
LANVEOC,LANVEOC,29120001.0,-4.439333,48.279333,81.0,29.0
LAQUEUILLEINRAE,LAQUEUILLEINRAE,63189005.0,2.744667,45.636,1095.0,63.0
LARAGNE_MONTEGLIN,LARAGNE_MONTEGLIN,5070003.0,5.7945,44.319167,565.0,5.0
LAUTRECNINOU,LAUTRECNINOU,81139002.0,2.147667,43.689333,210.0,81.0
LAVALENTRAMMES,LAVALENTRAMMES,53094001.0,-0.739333,48.032333,99.0,53.0
LAVAUR,LAVAUR,81140001.0,1.821667,43.715,141.0,81.0
LA_BALME_SUR_CERDON_SAPC,LA_BALME_SUR_CERDON_SAPC,1200002.0,5.482,46.09,596.0,1.0
LA_CHAMPENOISE,LA_CHAMPENOISE,36037001.0,1.77,46.951667,177.0,36.0
LA_COURONNE,LA_COURONNE,16113001.0,0.099833,45.627833,58.0,16.0
LA_COURTINE,LA_COURTINE,23067001.0,2.263667,45.702667,772.0,23.0
LA_CROIX_SUR_ROUDOULE_SAPC,LA_CROIX_SUR_ROUDOULE_SAPC,6051001.0,6.873333,43.987667,860.0,6.0
LA_DESTROUSSE_SAPC,LA_DESTROUSSE_SAPC,13031002.0,5.601,43.386667,201.0,13.0
LA_GRAND_COMBE,LA_GRAND_COMBE,30132002.0,4.023333,44.245,415.0,30.0
LA_MONGIE_CLIM,LA_MONGIE_CLIM,65059019.0,0.179,42.909,1745.0,65.0
LA_MOTTE_DU_CAIRE,LA_MOTTE_DU_CAIRE,4134002.0,6.0305,44.326667,665.0,4.0
LA_MUREARGENS,LA_MUREARGENS,4136001.0,6.520167,43.977,920.0,4.0
LA_MURE_RADOME,LA_MURE_RADOME,38269004.0,5.786167,44.935,885.0,38.0
LA_ROCHE_SUR_YON,LA_ROCHE_SUR_YON,85191003.0,-1.381833,46.705,88.0,85.0
LA_SALLE_PRUNET,LA_SALLE_PRUNET,48186001.0,3.650667,44.315667,903.0,48.0
LA_SAUNIERE,LA_SAUNIERE,23169001.0,1.938,46.131833,446.0,23.0
LA_SOUTERRAINE,LA_SOUTERRAINE,23176001.0,1.451833,46.2425,370.0,23.0
LA_VACQUERIE_SAPC,LA_VACQUERIE_SAPC,34317001.0,3.457833,43.792,620.0,34.0
LERE,LERE,18125004.0,2.893167,47.457833,139.0,18.0
LESRICEYSCIVC,LESRICEYSCIVC,10317002.0,4.3305,47.981333,274.0,10.0
LES_ARCS_SAPC,LES_ARCS_SAPC,83004004.0,6.470833,43.451,55.0,83.0
LEVIER_SAPC,LEVIER_SAPC,25334001.0,6.124167,46.949333,713.0,25.0
LEVIGEANT,LEVIGEANT,86289001.0,0.669667,46.242833,117.0,86.0
LEVROUX_TREG,LEVROUX_TREG,36093002.0,1.663,46.948667,169.0,36.0
LE_BLEYMARD_SAPC,LE_BLEYMARD_SAPC,48027003.0,3.748167,44.4515,1418.0,48.0
LE_BOURGET,LE_BOURGET,95088001.0,2.427667,48.967333,49.0,95.0
LE_BUISSON,LE_BUISSON,48032002.0,3.221667,44.648333,1110.0,48.0
LE_CASTELLET,LE_CASTELLET,83035001.0,5.784667,43.252167,417.0,83.0
LE_CHATELET,LE_CHATELET,77100003.0,2.801833,48.490833,85.0,77.0
LE_GRAU_DU_ROI,LE_GRAU_DU_ROI,30133001.0,4.137167,43.496,1.0,30.0
LE_HORPS,LE_HORPS,53116003.0,-0.440833,48.405667,268.0,53.0
LE_LUART,LE_LUART,72172001.0,0.583333,48.076667,95.0,72.0
LE_MANS,LE_MANS,72181001.0,0.194167,47.945833,51.0,72.0
LE_MERLERAULT_SAPC,LE_MERLERAULT_SAPC,61275001.0,0.299,48.711167,236.0,61.0
LE_MONTAT,LE_MONTAT,46197002.0,1.435,44.373667,260.0,46.0
LE_MOULE_GARDELINRAE,LE_MOULE_GARDELINRAE,97117012.0,-61.323333,16.301667,30.0,971.0
LE_MOULE_LAUREAL,LE_MOULE_LAUREAL,97117013.0,-61.349,16.314167,24.0,971.0
LE_PERTHUS,LE_PERTHUS,66137003.0,2.8595,42.473333,295.0,66.0
LE_PINAUHARAS_INRAE,LE_PINAUHARAS_INRAE,61328002.0,0.128167,48.735833,176.0,61.0
LE_PUYCHADRAC,LE_PUYCHADRAC,43046001.0,3.8945,45.054667,714.0,43.0
LE_RAIZET_AERO,LE_RAIZET_AERO,97101015.0,-61.516333,16.264,11.0,971.0
LE_SAIX,LE_SAIX,5158001.0,5.8155,44.475833,801.0,5.0
LE_VERDIER,LE_VERDIER,81313001.0,1.916667,44.0,218.0,81.0
LE_VIEUX_CERIER_SAPC,LE_VIEUX_CERIER_SAPC,16403001.0,0.442,45.9675,162.0,16.0
LIERGUES_SAPC,LIERGUES_SAPC,69114001.0,4.650333,45.9765,290.0,69.0
LIGRE,LIGRE,37129002.0,0.273,47.112333,67.0,37.0
LILLELESQUIN,LILLELESQUIN,59343001.0,3.0975,50.57,47.0,59.0
LILLERS,LILLERS,62516002.0,2.4965,50.5795,19.0,62.0
LIMERAY,LIMERAY,37131002.0,1.011833,47.461167,113.0,37.0
LIMOGESBELLEGARDE,LIMOGESBELLEGARDE,87085006.0,1.175,45.861167,402.0,87.0
LIMOGES_VILLE,LIMOGES_VILLE,87085009.0,1.2675,45.828667,252.0,87.0
LISIEUX_SAPC,LISIEUX_SAPC,14366002.0,0.227,49.165,62.0,14.0
LIVRON,LIVRON,26165001.0,4.830667,44.794167,98.0,26.0
LOMONT,LOMONT,25635001.0,6.625667,47.358667,820.0,25.0
LONGCHAMP,LONGCHAMP,21351001.0,5.286667,47.26,230.0,21.0
LONGEVILLES,LONGEVILLES,25348001.0,6.32,46.755,912.0,25.0
LONGUEVILLE,LONGUEVILLE,50277001.0,-1.573,48.862,5.0,50.0
LORIENTLANN_BIHOUE,LORIENTLANN_BIHOUE,56185001.0,-3.435667,47.762833,45.0,56.0
LOUARGAT,LOUARGAT,22135002.0,-3.305,48.573333,260.0,22.0
LOUBARESSE,LOUBARESSE,15108001.0,3.211667,44.933333,710.0,15.0
LOUVIGNEDUDESERT,LOUVIGNEDUDESERT,35162003.0,-1.129833,48.479333,153.0,35.0
LOUVILLE,LOUVILLE,28215001.0,1.816833,48.329333,145.0,28.0
LUBERSAC,LUBERSAC,19121002.0,1.411167,45.410333,390.0,19.0
LUCENAY,LUCENAY,69122001.0,4.694833,45.905667,255.0,69.0
LUCENDIOIS,LUCENDIOIS,26167001.0,5.451,44.617333,537.0,26.0
LUCHEPRINGE,LUCHEPRINGE,72175002.0,0.088167,47.713,92.0,72.0
LUCHON,LUCHON,31042012.0,0.600167,42.8015,618.0,31.0
LUNAS,LUNAS,34144001.0,3.170667,43.695833,249.0,34.0
LURCYLEVIS_SA,LURCYLEVIS_SA,3155003.0,2.947667,46.718333,225.0,3.0
LUS_L_CROIX_HTE,LUS_L_CROIX_HTE,26168001.0,5.710833,44.672833,1059.0,26.0
LYE,LYE,36107001.0,1.5,47.228333,130.0,36.0
LYONBRON,LYONBRON,69029001.0,4.949167,45.721333,202.0,69.0
LYONST_EXUPERY,LYONST_EXUPERY,69299001.0,5.077833,45.7265,235.0,69.0
L_AIGLE,L_AIGLE,61214002.0,0.662333,48.7585,232.0,61.0
L_ILE_D_YEU,L_ILE_D_YEU,85113001.0,-2.330167,46.693667,32.0,85.0
MACON,MACON,71270004.0,4.83,46.308333,216.0,71.0
MAGENTA,MAGENTA,98818002.0,166.473667,-22.260333,3.0,988.0
MAGNACLAVAL,MAGNACLAVAL,87089003.0,1.187,46.209667,246.0,87.0
MAGNANVILLE,MAGNANVILLE,78354001.0,1.674167,48.963667,123.0,78.0
MAICHE,MAICHE,25356003.0,6.791,47.243,825.0,25.0
MAILLYCIVC,MAILLYCIVC,51338001.0,4.116333,49.155333,182.0,51.0
MAISONNAIS,MAISONNAIS,18135001.0,2.2235,46.672667,219.0,18.0
MANOSQUE,MANOSQUE,4112001.0,5.785,43.843333,380.0,4.0
MAOPOOPO,MAOPOOPO,98611001.0,-178.121,-14.307833,35.0,986.0
MARCE,MARCE,49188001.0,-0.317,47.561833,53.0,49.0
MARCENAT,MARCENAT,15114002.0,2.833,45.302667,1075.0,15.0
MARCILLAC,MARCILLAC,19125001.0,2.039833,45.2835,598.0,19.0
MARIGNANE,MARIGNANE,13054001.0,5.216,43.437667,9.0,13.0
MARIGNY_BRIZAY,MARIGNY_BRIZAY,86146001.0,0.385333,46.75,120.0,86.0
MARINGUES,MARINGUES,63210002.0,3.342833,45.919167,300.0,63.0
MARMANDE,MARMANDE,47157004.0,0.193333,44.498167,30.0,47.0
MARSACENLIVRA,MARSACENLIVRA,63211001.0,3.73,45.478667,540.0,63.0
MARSAZ,MARSAZ,26177001.0,4.938667,45.113167,213.0,26.0
MARSILLARGUES,MARSILLARGUES,34151003.0,4.178333,43.665,2.0,34.0
MARTHON,MARTHON,16211002.0,0.44,45.61,120.0,16.0
MARTIGNEBRIAND,MARTIGNEBRIAND,49191001.0,-0.435833,47.2525,73.0,49.0
MATOUR_SAPC,MATOUR_SAPC,71289001.0,4.480333,46.304,415.0,71.0
MAURIAC,MAURIAC,15120005.0,2.293167,45.222167,674.0,15.0
MAUROUX,MAUROUX,32248001.0,0.824833,43.906833,201.0,32.0
MAURS,MAURS,15122002.0,2.166,44.734167,480.0,15.0
MAXENT,MAXENT,35169001.0,-1.967833,47.980833,116.0,35.0
MEGEVE,MEGEVE,74173001.0,6.608167,45.855333,1080.0,74.0
MELLEROY_ANCIENNE_SAPC,MELLEROY_ANCIENNE_SAPC,45199002.0,2.986667,47.88,165.0,45.0
MENAT,MENAT,63223001.0,2.91,46.105167,410.0,63.0
MENDEVILLE,MENDEVILLE,48095004.0,3.489833,44.516833,710.0,48.0
MERCUROL,MERCUROL,26179001.0,4.8835,45.0585,153.0,26.0
MERDRIGNAC,MERDRIGNAC,22147005.0,-2.408333,48.191667,135.0,22.0
MEYMAC,MEYMAC,19136001.0,2.145,45.536667,710.0,19.0
MEYTHET,MEYTHET,74182001.0,6.094,45.928167,455.0,74.0
MIERMAIGNE,MIERMAIGNE,28252002.0,0.99,48.253,267.0,28.0
MILLAU,MILLAU,12145001.0,3.0195,44.1185,712.0,12.0
MILLAULARZAC_SAPC,MILLAULARZAC_SAPC,12063003.0,3.181833,43.987,794.0,12.0
MOLESMES_SAPC,MOLESMES_SAPC,89260001.0,3.463833,47.610333,355.0,89.0
MONISTROLSURLOIRE,MONISTROLSURLOIRE,43137003.0,4.231167,45.314,777.0,43.0
MONTAGNIEU,MONTAGNIEU,1255002.0,5.469333,45.794333,336.0,1.0
MONTAUBAN,MONTAUBAN,82121002.0,1.376667,44.028,106.0,82.0
MONTBELIARD,MONTBELIARD,25388002.0,6.813333,47.503667,318.0,25.0
MONTBEUGNY,MONTBEUGNY,3180001.0,3.423167,46.536333,275.0,3.0
MONTBOUCHERSJ,MONTBOUCHERSJ,26191001.0,4.824167,44.545,136.0,26.0
MONTELIMAR,MONTELIMAR,26198001.0,4.733,44.581167,73.0,26.0
MONTFORTSURARGENS_SAPC,MONTFORTSURARGENS_SAPC,83083001.0,6.127,43.469667,141.0,83.0
MONTGARDON,MONTGARDON,50343001.0,-1.573833,49.2795,80.0,50.0
MONTIGNAC,MONTIGNAC,16226001.0,0.1015,45.777167,63.0,16.0
MONTJOUX,MONTJOUX,26202001.0,5.097167,44.5095,491.0,26.0
MONTLAUR,MONTLAUR,11251001.0,2.556667,43.13,150.0,11.0
MONTMARAULT,MONTMARAULT,3186001.0,2.9525,46.314833,466.0,3.0
MONTOURTIER_SAPC,MONTOURTIER_SAPC,53159002.0,-0.538667,48.209833,107.0,53.0
MONTPELLIERAEROPORT,MONTPELLIERAEROPORT,34154001.0,3.964667,43.576167,1.0,34.0
MONTREDONLABESSONNIE,MONTREDONLABESSONNIE,81182004.0,2.3555,43.725,566.0,81.0
MONTRIEUX,MONTRIEUX,41152001.0,1.7305,47.535833,96.0,41.0
MONTSEGURSLAU,MONTSEGURSLAU,26211001.0,4.860833,44.3615,146.0,26.0
MONT_CENIS,MONT_CENIS,73144001.0,6.899167,45.269333,2032.0,73.0
MORMOIRON,MORMOIRON,84082001.0,5.209667,44.072833,308.0,84.0
MORTEAU_SA,MORTEAU_SA,25411005.0,6.612167,47.062333,760.0,25.0
MOUROUX_SAPC,MOUROUX_SAPC,77320002.0,3.057,48.847167,148.0,77.0
MOUZAY,MOUZAY,55364001.0,5.209167,49.460167,166.0,55.0
MTSTVINCENT,MTSTVINCENT,71320001.0,4.477,46.627667,601.0,71.0
MUIDS,MUIDS,27422001.0,1.2805,49.224167,31.0,27.0
MULHOUSE,MULHOUSE,68224006.0,7.288833,47.75,245.0,68.0
MURAT_SUR_VEBRE,MURAT_SUR_VEBRE,81192005.0,2.8255,43.633333,1022.0,81.0
MURETLHERM,MURETLHERM,31299001.0,1.262,43.4515,189.0,31.0
MURS,MURS,36136001.0,1.168333,46.925,148.0,36.0
MURS_METRO,MURS_METRO,,,,,
NAIZININRAE,NAIZININRAE,56144001.0,-2.8165,48.005333,132.0,56.0
NANCYESSEY,NANCYESSEY,54526001.0,6.2215,48.687833,212.0,54.0
NANTESBOUGUENAIS,NANTESBOUGUENAIS,44020001.0,-1.608833,47.15,26.0,44.0
NANTIAT,NANTIAT,87103002.0,1.180667,46.004667,335.0,87.0
NARBONNE,NARBONNE,11262001.0,3.013333,43.183333,13.0,11.0
NAUSSAC,NAUSSAC,48105001.0,3.828333,44.748333,967.0,48.0
NAVES,NAVES,19146001.0,1.772667,45.3215,450.0,19.0
NEULISE,NEULISE,42156002.0,4.178667,45.9065,557.0,42.0
NEUVIC,NEUVIC,19148001.0,2.2815,45.379167,615.0,19.0
NEVERSMARZY,NEVERSMARZY,58160001.0,3.112667,46.998333,175.0,58.0
NICE,NICE,6088013.0,7.270667,43.6965,16.0,6.0
NIMESCOURBESSAC,NIMESCOURBESSAC,30189001.0,4.406333,43.856833,59.0,30.0
NIMESGARONS,NIMESGARONS,30258001.0,4.412833,43.772833,94.0,30.0
NIORT,NIORT,79191005.0,-0.400167,46.315833,57.0,79.0
NOGENT,NOGENT,94052001.0,2.483333,48.838333,60.0,94.0
NOUMEA,NOUMEA,98818001.0,166.452833,-22.276,69.0,988.0
NYONS_P182,NYONS_P182,26220010.0,5.1155,44.359167,316.0,26.0
OLORON,OLORON,64422007.0,-0.5795,43.1595,295.0,64.0
ORANGE,ORANGE,84087001.0,4.861,44.1445,57.0,84.0
ORGERUS,ORGERUS,78465001.0,1.693833,48.859167,102.0,78.0
ORLEANS,ORLEANS,45055001.0,1.778167,47.990667,123.0,45.0
ORLY,ORLY,91027002.0,2.397,48.718,86.0,91.0
ORSENNES,ORSENNES,36146001.0,1.668333,46.465,315.0,36.0
ORTHEZ,ORTHEZ,64430001.0,-0.771667,43.49,87.0,64.0
ORVAL_RAD,ORVAL_RAD,18172003.0,2.467333,46.731,165.0,18.0
OUANAHAM,OUANAHAM,98814001.0,167.241167,-20.777667,30.0,988.0
OUESSANTSTIFF,OUESSANTSTIFF,29155005.0,-5.057,48.473333,64.0,29.0
OUROUER,OUROUER,58204001.0,3.305,47.058667,262.0,58.0
OUZOUERARVALIS,OUZOUERARVALIS,41173002.0,1.522167,47.904,129.0,41.0
PAGNYLECHATEAU,PAGNYLECHATEAU,21131001.0,5.190667,47.043167,182.0,21.0
PALLUAU,PALLUAU,85169002.0,-1.597667,46.808,51.0,85.0
PARISMONTSOURIS,PARISMONTSOURIS,75114001.0,2.337833,48.821667,75.0,75.0
PAULHAC_EN_MARGERIDE_SAPC,PAULHAC_EN_MARGERIDE_SAPC,48110001.0,3.38,44.947667,1170.0,48.0
PAUUZEIN,PAUUZEIN,64549001.0,-0.416333,43.385,183.0,64.0
PEAUGRES_RAD,PEAUGRES_RAD,7172002.0,4.705833,45.286167,480.0,7.0
PEIRA_CAVA,PEIRA_CAVA,6077006.0,7.363333,43.929167,1443.0,6.0
PEONE,PEONE,6094002.0,6.930833,44.099667,1784.0,6.0
PERPIGNAN,PERPIGNAN,66136004.0,2.885,42.701667,48.0,66.0
PERREUX,PERREUX,42170001.0,4.110667,46.028167,297.0,42.0
PETITBOURG_DUCLOSINRAE,PETITBOURG_DUCLOSINRAE,97118007.0,-61.661667,16.205,110.0,971.0
PEUXETCOUFFOULEUX_SAPC,PEUXETCOUFFOULEUX_SAPC,12179001.0,2.867167,43.761833,830.0,12.0
PEYRELEVADE,PEYRELEVADE,19164001.0,2.058667,45.701,827.0,19.0
PEYRUSSEGRANDE,PEYRUSSEGRANDE,32315001.0,0.222,43.616667,254.0,32.0
PIERREBUFFIERE,PIERREBUFFIERE,87119002.0,1.358333,45.696667,253.0,87.0
PIETRALBA,PIETRALBA,20223001.0,9.172,42.541,510.0,20.0
PILACANALE,PILACANALE,20232002.0,8.903667,41.8145,407.0,20.0
PIONSAT,PIONSAT,63281001.0,2.687833,46.104833,524.0,63.0
PLAINE_DES_MAKES_SAPC,PLAINE_DES_MAKES_SAPC,97414409.0,55.409167,-21.1995,980.0,974.0
PLAUZAT_SAPC,PLAUZAT_SAPC,63282001.0,3.133667,45.632333,503.0,63.0
PLOERMEL,PLOERMEL,56165003.0,-2.3975,47.950833,65.0,56.0
PLOUAYSA,PLOUAYSA,56166005.0,-3.3445,47.916167,75.0,56.0
PLOUDANIELINRAE,PLOUDANIELINRAE,29179001.0,-4.327667,48.503833,76.0,29.0
PLOUGUENAST,PLOUGUENAST,22219001.0,-2.708333,48.28,150.0,22.0
POITIERSBIARD,POITIERSBIARD,86027001.0,0.314333,46.593833,125.0,86.0
PONTARLIER,PONTARLIER,25462001.0,6.32,46.927,808.0,25.0
PONTIVY,PONTIVY,56178002.0,-2.848333,48.083333,59.0,56.0
PONTOISE_VILLE,PONTOISE_VILLE,95500003.0,2.084667,49.044667,50.0,95.0
PONTORSON,PONTORSON,50410002.0,-1.503333,48.576667,10.0,50.0
PORQUEROLLES,PORQUEROLLES,83069002.0,6.226833,43.0,135.0,83.0
POUGNEHERISSON_SAPC,POUGNEHERISSON_SAPC,79215001.0,-0.401833,46.6605,196.0,79.0
POUILLY_SUR_LOI,POUILLY_SUR_LOI,58215005.0,2.962167,47.297,225.0,58.0
PREENPAIL_SAPC,PREENPAIL_SAPC,53185001.0,-0.183167,48.452,277.0,53.0
PREMERY,PREMERY,58218005.0,3.33,47.171667,238.0,58.0
PRESTEVROULT,PRESTEVROULT,28305001.0,1.4675,48.181333,129.0,28.0
PREVERANGES,PREVERANGES,18187004.0,2.2365,46.425333,462.0,18.0
PTE_DE_PENMARCH,PTE_DE_PENMARCH,29158001.0,-4.374833,47.7975,3.0,29.0
PUYCELSI,PUYCELSI,81217002.0,1.680667,43.981,260.0,81.0
PUYMERAS,PUYMERAS,84094001.0,5.131333,44.2895,392.0,84.0
PUYSTMARTIN,PUYSTMARTIN,26258001.0,4.976833,44.618167,211.0,26.0
PUYVILLE,PUYVILLE,43157004.0,3.8895,45.0415,620.0,43.0
QUIMPER,QUIMPER,29232002.0,-4.108333,47.995,60.0,29.0
QUINCY_SA,QUINCY_SA,18190002.0,2.137833,47.136333,128.0,18.0
QUINTENIC,QUINTENIC,22261002.0,-2.42,48.519167,71.0,22.0
RADINGHEM,RADINGHEM,62685001.0,2.113667,50.549167,115.0,62.0
RAPA,RAPA,98741001.0,-144.334833,-27.618333,2.0,987.0
REGUSSE,REGUSSE,83102001.0,6.128333,43.655,525.0,83.0
REIGNAC,REIGNAC,37192001.0,0.899,47.219333,90.0,37.0
REMUZAT,REMUZAT,26264002.0,5.367,44.431667,475.0,26.0
RENNESST_JACQUES,RENNESST_JACQUES,35281001.0,-1.734,48.068833,36.0,35.0
RENNO,RENNO,20258001.0,8.807167,42.190167,755.0,20.0
REUILLY,REUILLY,36171002.0,2.026667,47.076667,155.0,36.0
RIBIERS,RIBIERS,5118003.0,5.855,44.2355,520.0,5.0
RIOUX_MARTIN,RIOUX_MARTIN,16279001.0,0.003333,45.262,81.0,16.0
ROBERT_VERTPRE,ROBERT_VERTPRE,97222011.0,-60.9705,14.694667,276.0,972.0
ROCHEFORTSAMSON_SAPC,ROCHEFORTSAMSON_SAPC,26273002.0,5.165167,44.990667,368.0,26.0
RODEZAVEYRON,RODEZAVEYRON,12254001.0,2.4825,44.410333,578.0,12.0
ROMANS_SAPC,ROMANS_SAPC,26281001.0,4.998667,45.050167,156.0,26.0
ROMILLY,ROMILLY,10323001.0,3.7495,48.503333,77.0,10.0
ROMORANTIN,ROMORANTIN,41194001.0,1.746667,47.36,104.0,41.0
RONSENAC,RONSENAC,16283002.0,0.253333,45.478333,90.0,16.0
ROSNAY,ROSNAY,36173002.0,1.249833,46.703,109.0,36.0
ROSTRENEN,ROSTRENEN,22266001.0,-3.295333,48.226667,236.0,22.0
ROUESSEVASSE,ROUESSEVASSE,72255001.0,-0.225667,48.139333,206.0,72.0
RULLY,RULLY,71378001.0,4.744167,46.8665,240.0,71.0
SABLE_SUR_SARTH,SABLE_SUR_SARTH,72264001.0,-0.302667,47.840167,41.0,72.0
SABLIERES_OARA,SABLIERES_OARA,7202002.0,4.0725,44.533,540.0,7.0
SAINTCASTLEG,SAINTCASTLEG,22282001.0,-2.247,48.6445,35.0,22.0
SAINTDENIS_COLLEGE,SAINTDENIS_COLLEGE,97411111.0,55.456667,-20.884167,36.0,974.0
SAINTELIVRADESURLOT,SAINTELIVRADESURLOT,47252002.0,0.614,44.4305,49.0,47.0
SAINTETIENNE,SAINTETIENNE,42218010.0,4.261667,45.443333,410.0,42.0
SAINTJOACHIM_SAE,SAINTJOACHIM_SAE,44168001.0,-2.1925,47.3815,3.0,44.0
SAINT_GERMAIN_SAPC,SAINT_GERMAIN_SAPC,72284001.0,0.093,48.301333,85.0,72.0
SAINT_PRIVE,SAINT_PRIVE,89365001.0,2.985333,47.658,198.0,89.0
SALIGNACEYVIGUES,SALIGNACEYVIGUES,24516002.0,1.364667,44.936667,276.0,24.0
SALINDRES,SALINDRES,30305001.0,4.1525,44.1745,191.0,30.0
SALLES_DE_BARB,SALLES_DE_BARB,16360001.0,-0.111667,45.45,71.0,16.0
SAMPOLO,SAMPOLO,20268001.0,9.123,41.943,837.0,20.0
SANCERRE,SANCERRE,18241002.0,2.799,47.336167,240.0,18.0
SARTENE,SARTENE,20272004.0,8.979333,41.652333,62.0,20.0
SARZEAU_SA,SARZEAU_SA,56240003.0,-2.796,47.510667,35.0,56.0
SAUNAY,SAUNAY,37240001.0,0.931333,47.590333,109.0,37.0
SAUXILLANGES,SAUXILLANGES,63415001.0,3.368833,45.551333,460.0,63.0
SAVIGNY_CLAIRIS,SAVIGNY_CLAIRIS,89380001.0,3.104,48.0865,184.0,89.0
SAVIGNY_VERON,SAVIGNY_VERON,37242002.0,0.149333,47.227,33.0,37.0
SAVOILLAN,SAVOILLAN,84125003.0,5.375167,44.179833,510.0,84.0
SAYAT_SAPC,SAYAT_SAPC,63417001.0,3.045167,45.839667,550.0,63.0
SCILLE,SCILLE,79309001.0,-0.571167,46.617167,247.0,79.0
SEDERON,SEDERON,26340001.0,5.538833,44.202333,804.0,26.0
SEGRE,SEGRE,49331002.0,-0.871,47.698333,49.0,49.0
SEILLANS,SEILLANS,83124002.0,6.622167,43.580167,278.0,83.0
SENNECEY,SENNECEY,71512001.0,4.879167,46.620167,190.0,71.0
SEPTSARGES,SEPTSARGES,55484001.0,5.155,49.276333,293.0,55.0
SERVOZ,SERVOZ,74266001.0,6.767333,45.931167,815.0,74.0
SEVRY,SEVRY,18251001.0,2.804667,47.138,205.0,18.0
SIBIRIL_S_A,SIBIRIL_S_A,29276001.0,-4.0775,48.660333,58.0,29.0
SISTERON,SISTERON,4209005.0,5.916,44.2245,500.0,4.0
SOCOA,SOCOA,64189001.0,-1.6865,43.3945,21.0,64.0
SONZAY,SONZAY,37249001.0,0.470667,47.5185,117.0,37.0
SOSPEL,SOSPEL,6136005.0,7.433667,43.862833,843.0,6.0
SOUCIEU,SOUCIEU,69176001.0,4.692333,45.665667,367.0,69.0
SOURCE_DU_DOUBS,SOURCE_DU_DOUBS,25413002.0,6.2095,46.707,940.0,25.0
SOURS_SAPC,SOURS_SAPC,28380003.0,1.555167,48.406333,147.0,28.0
STAGREVE,STAGREVE,7204005.0,4.401,45.012167,1072.0,7.0
STAMANDMTROND,STAMANDMTROND,18197004.0,2.502833,46.737333,177.0,18.0
STATTMATTEN_SA,STATTMATTEN_SA,67476002.0,8.002333,48.795167,121.0,67.0
STAUBAN,STAUBAN,26292002.0,5.409833,44.294833,625.0,26.0
STBARTHELEMYV_SAPC,STBARTHELEMYV_SAPC,26295001.0,4.9025,45.173833,203.0,26.0
STCHRISTOPHEL_SAPC,STCHRISTOPHEL_SAPC,26298001.0,5.071833,45.229333,452.0,26.0
STCHRISTOPHESURNAIS,STCHRISTOPHESURNAIS,37213003.0,0.464333,47.6155,107.0,37.0
STCLAUDE_SOUFRIERE,STCLAUDE_SOUFRIERE,97124008.0,-61.662667,16.045,1417.0,971.0
STCOMEDOLT,STCOMEDOLT,12216001.0,2.827833,44.514667,380.0,12.0
STEPAIN,STEPAIN,37216002.0,0.604833,47.157167,112.0,37.0
STETIENNE_LUGDARES,STETIENNE_LUGDARES,7232001.0,3.9485,44.651333,1022.0,7.0
STE_MARIE_CUINES,STE_MARIE_CUINES,73255003.0,6.307167,45.3435,460.0,73.0
STE_MARIE_DU_MO,STE_MARIE_DU_MO,50509002.0,-1.168333,49.4045,5.0,50.0
STE_MARIE_PEROU,STE_MARIE_PEROU,97228006.0,-61.024167,14.761167,200.0,972.0
STFULGENT_SAPC,STFULGENT_SAPC,85215002.0,-1.184167,46.848,62.0,85.0
STGERMAINL_AR,STGERMAINL_AR,69208001.0,4.6045,45.869333,370.0,69.0
STGERMAINL_HE,STGERMAINL_HE,63353003.0,3.532667,45.461,1070.0,63.0
STHILAIRE,STHILAIRE,38395001.0,5.884,45.307833,970.0,38.0
STHILAIREDUH,STHILAIREDUH,50484002.0,-1.096667,48.563667,95.0,50.0
STJEAND_ARDIE,STJEAND_ARDIE,69211001.0,4.702667,46.117667,240.0,69.0
STJEANENROYA,STJEANENROYA,26307001.0,5.2925,45.009167,308.0,26.0
STJUSTENCHEV,STJUSTENCHEV,42248002.0,3.844167,45.9085,612.0,42.0
STMARDS,STMARDS,10350001.0,3.789,48.169833,227.0,10.0
STMARTINDA,STMARTINDA,18223003.0,2.416833,47.200667,172.0,18.0
STMARTINDEST,STMARTINDEST,42257002.0,3.816167,46.204333,470.0,42.0
STMARTINDUM,STMARTINDUM,21561003.0,4.781167,47.4005,578.0,21.0
STMARTINMER,STMARTINMER,21560001.0,4.260833,47.238167,521.0,21.0
STMAUR,STMAUR,94068001.0,2.492333,48.808667,48.0,94.0
STMAURICELESCOUCHES_SAPC,STMAURICELESCOUCHES_SAPC,71464001.0,4.594833,46.881833,300.0,71.0
STNAZAIRELED,STNAZAIRELED,26321003.0,5.284833,44.5545,607.0,26.0
STNICOLAS,STNICOLAS,82169001.0,1.026667,44.055,82.0,82.0
STNICOLASDEBOURGUEIL,STNICOLASDEBOURGUEIL,37228001.0,0.107833,47.29,44.0,37.0
STPIERRE,STPIERRE,48176001.0,3.3,44.246667,860.0,48.0
STPOURCAINBES,STPOURCAINBES,3253001.0,3.615833,46.491667,268.0,3.0
STPRIVAT,STPRIVAT,19237001.0,2.096,45.139,585.0,19.0
STRASBOURGENTZHEIM,STRASBOURGENTZHEIM,67124001.0,7.640333,48.5495,150.0,67.0
STRASBOURG_BOTANIQUE,STRASBOURG_BOTANIQUE,67482001.0,7.768833,48.581833,139.0,67.0
STSAUVEUR_SA,STSAUVEUR_SA,7294001.0,4.26,44.296,149.0,7.0
STSORLINENVA,STSORLINENVA,26330001.0,4.930333,45.271167,237.0,26.0
ST_ANDRE,ST_ANDRE,58229001.0,3.845,47.398333,275.0,58.0
ST_AUBAN,ST_AUBAN,4049001.0,5.989667,44.062167,458.0,4.0
ST_CREPIN,ST_CREPIN,24392001.0,1.276667,44.958333,270.0,24.0
ST_EMILION,ST_EMILION,33394002.0,-0.188,44.917667,38.0,33.0
ST_ETIENNEBOUTHEON,ST_ETIENNEBOUTHEON,42005001.0,4.293833,45.545667,395.0,42.0
ST_FARGEAU_SAPC,ST_FARGEAU_SAPC,,,,,
ST_FLOUR,ST_FLOUR,15187006.0,3.067333,45.024333,909.0,15.0
ST_FRONT,ST_FRONT,16318001.0,0.295833,45.881833,97.0,16.0
ST_GERMAIN_BELL,ST_GERMAIN_BELL,87146002.0,1.4995,45.6125,418.0,87.0
ST_GERVAIS,ST_GERVAIS,33415001.0,-0.472667,45.027167,42.0,33.0
ST_GIRONS,ST_GIRONS,9289001.0,1.106833,43.005333,414.0,9.0
ST_JEANSTNICOLAS,ST_JEANSTNICOLAS,5145002.0,6.209833,44.670833,1210.0,5.0
ST_JEAN_DE_MINERVOIS,ST_JEAN_DE_MINERVOIS,34269001.0,2.857667,43.385667,258.0,34.0
ST_JULIEN_SA,ST_JULIEN_SA,39485002.0,5.448,46.385167,361.0,39.0
ST_JUNIEN,ST_JUNIEN,87154003.0,0.917,45.900833,271.0,87.0
ST_LEONARD_NOBL,ST_LEONARD_NOBL,87161002.0,1.4965,45.828667,346.0,87.0
ST_MARTIAL,ST_MARTIAL,30283001.0,3.7345,44.035833,483.0,30.0
ST_MARTIN_DE_LONDRES,ST_MARTIN_DE_LONDRES,34274001.0,3.729333,43.7795,214.0,34.0
ST_MAXIMINOLLI,ST_MAXIMINOLLI,83116004.0,5.851167,43.480667,295.0,83.0
ST_MICHEL_MAUR_SAPC,ST_MICHEL_MAUR_SAPC,73261003.0,6.4645,45.218167,698.0,73.0
ST_M_HINX_STNAINRAE,ST_M_HINX_STNAINRAE,40272002.0,-1.299333,43.570833,37.0,40.0
ST_PONCY_SAPC,ST_PONCY_SAPC,15207002.0,3.174167,45.178333,805.0,15.0
ST_QUENTIN,ST_QUENTIN,2320001.0,3.206,49.818333,98.0,2.0
ST_RAMBERT_CG01,ST_RAMBERT_CG01,1384003.0,5.461,45.950333,296.0,1.0
ST_SULPICE_DE_POMMIERS,ST_SULPICE_DE_POMMIERS,33482001.0,-0.12,44.683833,82.0,33.0
ST_THIERRYCIVC,ST_THIERRYCIVC,51518001.0,3.960667,49.300833,135.0,51.0
ST_YAN,ST_YAN,71491001.0,4.0165,46.408333,242.0,71.0
SUBLAINES,SUBLAINES,37253001.0,0.993167,47.265,111.0,37.0
SURGERES,SURGERES,17434001.0,-0.705,46.123333,75.0,17.0
TANUS,TANUS,81292001.0,2.279667,44.107167,537.0,81.0
TARASCON,TARASCON,13108002.0,4.666667,43.805,102.0,13.0
TARBESLOURDESPYRENEES,TARBESLOURDESPYRENEES,65344001.0,0.0,43.188,360.0,65.0
TAUVES,TAUVES,63426001.0,2.595667,45.544667,851.0,63.0
TENDE_SAPC,TENDE_SAPC,6163007.0,7.586,44.043167,636.0,6.0
TENDU_SAPC,TENDU_SAPC,36219001.0,1.588333,46.6615,155.0,36.0
THAUVENAY_SA,THAUVENAY_SA,18262002.0,2.8615,47.302,195.0,18.0
THEIX,THEIX,63345001.0,3.016667,45.7,820.0,63.0
THONONINRAE,THONONINRAE,74281001.0,6.455,46.366667,376.0,74.0
TIGNES_SAPC,TIGNES_SAPC,73296005.0,6.907167,45.467,2084.0,73.0
TONNERRE_JOUDRE,TONNERRE_JOUDRE,89418007.0,3.995,47.868167,200.0,89.0
TORCY,TORCY,71540001.0,4.466667,46.766667,322.0,71.0
TORCY_METRO,TORCY_METRO,,,,,
TORTEZAIS_SAPC,TORTEZAIS_SAPC,3285001.0,2.857,46.451333,256.0,3.0
TOULON,TOULON,83137001.0,5.900667,43.115833,3.0,83.0
TOULON_SUR_ARROUX_SA,TOULON_SUR_ARROUX_SA,71542004.0,4.156,46.688667,306.0,71.0
TOULOUSEBLAGNAC,TOULOUSEBLAGNAC,31069001.0,1.378833,43.621,151.0,31.0
TOULOUSEFRANCAZAL,TOULOUSEFRANCAZAL,31157001.0,1.372667,43.540333,164.0,31.0
TOUROUVRE_SAPC,TOUROUVRE_SAPC,61491002.0,0.667167,48.585,217.0,61.0
TOURS,TOURS,37179001.0,0.727333,47.4445,108.0,37.0
TOUSSUS_LE_NOBLE,TOUSSUS_LE_NOBLE,78620001.0,2.1135,48.750667,154.0,78.0
TRAPPES,TRAPPES,78621001.0,2.009833,48.774333,167.0,78.0
TREGUNC,TREGUNC,29293001.0,-3.868833,47.841333,25.0,29.0
TRESSERRE,TRESSERRE,66214001.0,2.826667,42.545,148.0,66.0
TRESSON_SAPC,TRESSON_SAPC,72361001.0,0.5595,47.885333,154.0,72.0
TROYESBARBEREY,TROYESBARBEREY,10030001.0,4.02,48.324667,112.0,10.0
TULLE,TULLE,19272001.0,1.740333,45.2425,235.0,19.0
USINENS_SA,USINENS_SA,74285002.0,5.8445,46.013,452.0,74.0
USSELLES_PLAINES,USSELLES_PLAINES,19275004.0,2.281667,45.527667,670.0,19.0
UZERCHE,UZERCHE,19276006.0,1.568167,45.396333,422.0,19.0
UZES,UZES,30334001.0,4.42,44.005,138.0,30.0
VAILLY_SAULDRE,VAILLY_SAULDRE,18269003.0,2.615833,47.453833,226.0,18.0
VALBONNESOPHIA,VALBONNESOPHIA,6152002.0,7.0285,43.623167,238.0,6.0
VALDROME,VALDROME,26361001.0,5.576667,44.505333,786.0,26.0
VALENCIENNES,VALENCIENNES,59606004.0,3.461,50.328333,50.0,59.0
VALLERAUGUE,VALLERAUGUE,30339002.0,3.641667,44.08,395.0,30.0
VALLON_SA,VALLON_SA,7330004.0,4.403667,44.391833,120.0,7.0
VALSLESBAINS,VALSLESBAINS,7331001.0,4.360667,44.6695,283.0,7.0
VANNESSENE,VANNESSENE,56243001.0,-2.714167,47.6045,3.0,56.0
VARENNESSTSA,VARENNESSTSA,71558001.0,5.255333,46.529333,207.0,71.0
VAUBADON,VAUBADON,14727001.0,-0.835333,49.21,105.0,14.0
VAUCLIN,VAUCLIN,97232003.0,-60.836667,14.551833,12.0,972.0
VAUVENARGUES,VAUVENARGUES,13111002.0,5.68,43.551,565.0,13.0
VERTUSCIVC,VERTUSCIVC,51612003.0,3.995333,48.9025,150.0,51.0
VERT_TOULONCIVC,VERT_TOULONCIVC,51611001.0,3.906,48.84,155.0,51.0
VIABON,VIABON,28406001.0,1.679833,48.196167,138.0,28.0
VICHYCHARMEIL,VICHYCHARMEIL,3060001.0,3.398667,46.166667,249.0,3.0
VIC_LE_FESQ,VIC_LE_FESQ,30349001.0,4.072167,43.870833,45.0,30.0
VIERZON,VIERZON,18279005.0,2.073167,47.237833,155.0,18.0
VILLACOUBLAY,VILLACOUBLAY,78640001.0,2.204,48.7725,174.0,78.0
VILLAR_DARENE,VILLAR_DARENE,5181002.0,6.361667,45.030833,1665.0,5.0
VILLAR_ST_PANCRACE,VILLAR_ST_PANCRACE,5183001.0,6.640333,44.880333,1310.0,5.0
VILLEFORT,VILLEFORT,48198001.0,3.928333,44.441667,620.0,48.0
VILLEFRANCHEDEROUERGUE,VILLEFRANCHEDEROUERGUE,12300002.0,2.033333,44.35,252.0,12.0
VILLEMURLIN,VILLEMURLIN,45340002.0,2.366167,47.6935,144.0,45.0
VILLENAVE_DORNONINRAE,VILLENAVE_DORNONINRAE,33550001.0,-0.576667,44.79,25.0,33.0
VILLEROY,VILLEROY,77515001.0,2.773333,48.991667,109.0,77.0
VILLETTE,VILLETTE,75119002.0,2.336667,48.868333,57.0,75.0
VILLIERSLEBAC,VILLIERSLEBAC,91679001.0,2.1115,48.730333,147.0,91.0
VINSOBRES,VINSOBRES,26377002.0,5.058333,44.283333,210.0,26.0
VIRE_HIPPODROME,VIRE_HIPPODROME,14762004.0,-0.899,48.850833,100.0,14.0
VISAN,VISAN,84150001.0,4.9055,44.336667,141.0,84.0
VITROLLES,VITROLLES,5184002.0,5.951667,44.408667,595.0,5.0
VITRYLECROISECIVC,VITRYLECROISECIVC,10438001.0,4.554167,48.144333,237.0,10.0
WANGENBOURG_SAPC,WANGENBOURG_SAPC,67122001.0,7.307,48.6425,460.0,67.0
