nom_fichier,station,id,longitude,latitude,altitude,departement
AGENLA_GARENNE_2001_47,AGENLA_GARENNE,47091001,0.594667,44.172167,58,47
AJACCIO_2001_20,AJACCIO,20004002,8.792667,41.918,5,20
ALBA_SA_2001_07,ALBA_SA,7005002,4.582833,44.538833,223,7
ALBI_2001_81,ALBI,81004006,2.141667,43.928333,170,81
ALENCON_2001_61,ALENCON,61001001,0.110167,48.4455,143,61
ALISTRO_2001_20,ALISTRO,20303002,9.5415,42.259667,65,20
ALTKIRCH_2001_68,ALTKIRCH,68004001,7.253333,47.618333,350,68
ALZON_2001_30,ALZON,30009001,3.444,43.979,611,30
AMBERIEU_2001_01,AMBERIEU,1089001,5.329333,45.9765,250,1
AMBOISE_LYCEE_2001_37,AMBOISE_LYCEE,37003004,0.977,47.394167,116,37
ANTRAIGUES_SA_2001_07,ANTRAIGUES_SA,7011004,4.352167,44.712167,600,7
ARBOIS_SAPC_2001_39,ARBOIS_SAPC,39013004,5.740167,46.896,313,39
ARGENTAN_2001_61,ARGENTAN,61006005,0.0115,48.718167,170,61
ARGENTAT_2001_19,ARGENTAT,19010001,1.9375,45.101333,190,19
ARVIGNA_2001_09,ARVIGNA,9022001,1.729167,43.057833,370,9
ARZAL_2001_56,ARZAL,56004001,-2.382667,47.512667,26,56
AUBERIVE_SAPC_2001_52,AUBERIVE_SAPC,52023002,5.0535,47.783,349,52
AUCH_2001_32,AUCH,32013005,0.601167,43.689,122,32
AUPS_2001_83,AUPS,83007004,6.1875,43.641,497,83
AURILLAC_2001_15,AURILLAC,15014004,2.419167,44.8915,632,15
AUXERRE_2001_89,AUXERRE,89346001,3.5455,47.8015,207,89
AVIGNON_2001_84,AVIGNON,84007005,4.9025,43.911333,34,84
AVIZECIVC_2001_51,AVIZECIVC,51029004,4.01,48.978,175,51
AVORD_2001_18,AVORD,18092001,2.642167,47.052167,175,18
BADONVILLERSA_2001_54,BADONVILLERSA,54040003,6.9,48.495,332,54
BALEMULHOUSE_2001_68,BALEMULHOUSE,68297001,7.51,47.614333,263,68
BASTIA_2001_20,BASTIA,20148001,9.485167,42.540667,10,20
BEAUCOUZE_2001_49,BEAUCOUZE,49020001,-0.614333,47.479,50,49
BEAUMONT_SAPC_2001_37,BEAUMONT_SAPC,37023002,1.211667,47.177167,126,37
BELLAC_2001_87,BELLAC,87011002,1.052667,46.120333,241,87
BELLEME_SAPC_2001_61,BELLEME_SAPC,61426001,0.55,48.373833,168,61
BELLE_ILELE_TALUT_2001_56,BELLE_ILELE_TALUT,56009001,-3.218333,47.294333,34,56
BENEVENT_SAPC_2001_23,BENEVENT_SAPC,23021001,1.6285,46.121,460,23
BERGERAC_2001_24,BERGERAC,24037002,0.483333,44.851667,51,24
BERZEME_SA_2001_07,BERZEME_SA,7032003,4.5665,44.6285,760,7
BESANCON_2001_25,BESANCON,25056001,5.988833,47.249,307,25
BESSEY_2001_42,BESSEY,21065001,4.743167,47.086,593,21
BESSINES_2001_87,BESSINES,87014005,1.376,46.112667,301,87
BIARRITZPAYSBASQUE_2001_64,BIARRITZPAYSBASQUE,64024001,-1.534333,43.469333,71,64
BIGNAN_2001_56,BIGNAN,56017002,-2.766667,47.883333,160,56
BISCARROSSE_2001_40,BISCARROSSE,40046001,-1.2475,44.431667,35,40
BOEN_SUR_LIGNON_2001_42,BOEN_SUR_LIGNON,42019004,4.007333,45.756333,448,42
BOISSYLECHAT_2001_77,BOISSYLECHAT,77042001,3.14,48.825,133,77
BONNEVAUX_2001_25,BONNEVAUX,74041001,6.678333,46.311667,800,74
BORDEAUXMERIGNAC_2001_33,BORDEAUXMERIGNAC,33281001,-0.691333,44.830667,47,33
BORS_2001_16,BORS,16052001,0.118333,45.346667,94,16
BOURBONLANCY_2001_71,BOURBONLANCY,71047004,3.7385,46.6105,210,71
BOURBON_SAPC_2001_03,BOURBON_SAPC,3036002,3.0495,46.58,270,3
BOURGARGENTAL_2001_42,BOURGARGENTAL,42023004,4.5735,45.298667,514,42
BOURGES_2001_18,BOURGES,18033001,2.359833,47.059167,161,18
BOURG_ST_MAURICE_2001_73,BOURG_ST_MAURICE,73054001,6.763333,45.612667,865,73
BOUSSAC_SAPC_2001_23,BOUSSAC_SAPC,23031002,2.228333,46.343333,380,23
BOUTEVILLE_2001_16,BOUTEVILLE,16057001,-0.116667,45.6,68,16
BRESTGUIPAVAS_2001_29,BRESTGUIPAVAS,29075001,-4.391167,48.453833,92,29
BRIANCON_2001_05,BRIANCON,5023008,6.638333,44.896667,1352,5
BRIGNOGAN_2001_29,BRIGNOGAN,29021001,-4.331,48.6765,9,29
BRIVE_2001_19,BRIVE,19031008,1.473333,45.146667,115,19
BUGEAT_2001_19,BUGEAT,19033001,1.930333,45.602667,694,19
BUHY_2001_95,BUHY,95119001,1.6945,49.194,90,95
BUSSON_SAPC_2001_52,BUSSON_SAPC,52084002,5.3605,48.328833,387,52
CABANAC_ET_VILL_2001_33,CABANAC_ET_VILL,33077002,-0.55,44.568333,72,33
CAENCARPIQUET_2001_14,CAENCARPIQUET,14137001,-0.456167,49.18,67,14
CALAISMARCK_2001_62,CALAISMARCK,62548001,1.966667,50.966667,3,62
CALVI_2001_20,CALVI,20050001,8.7915,42.5295,57,20
CAMPS_2001_19,CAMPS,19034001,1.988333,44.983667,519,19
CAPDELAHEVE_2001_76,CAPDELAHEVE,76552001,0.071167,49.509,100,76
CAPFERRET_2001_33,CAPFERRET,33236002,-1.252,44.630667,8,33
CAP_BEAR_2001_66,CAP_BEAR,66148001,3.133667,42.515333,82,66
CARCASSONNE_2001_11,CARCASSONNE,11069001,2.2955,43.215333,128,11
CARPENTRAS_2001_84,CARPENTRAS,84031001,5.058333,44.083667,98,84
CAVAILLON_2001_84,CAVAILLON,84035003,5.032333,43.8565,70,84
CELLIEU_2001_42,CELLIEU,42032001,4.538667,45.533833,493,42
CERISIERES_2001_52,CERISIERES,52091003,5.083333,48.308333,332,52
CEYZERIAT_SAPC_2001_01,CEYZERIAT_SAPC,1072001,5.287667,46.204333,260,1
CHAMBERET_2001_19,CHAMBERET,19036001,1.724667,45.573667,444,19
CHAMBON_VOUEIZE_2001_23,CHAMBON_VOUEIZE,23045001,2.424667,46.186833,329,23
CHAMPAGNOLE_2001_39,CHAMPAGNOLE,39097003,5.886,46.756833,537,39
CHANNAY_LATHAN_2001_37,CHANNAY_LATHAN,37055002,0.255333,47.4795,87,37
CHAREILCINTRAT_SAPC_2001_03,CHAREILCINTRAT_SAPC,3059001,3.225667,46.275833,286,3
CHASTREIX_2001_63,CHASTREIX,63098001,2.7745,45.533,1385,63
CHATEAUNEUF_DU_PAPE_2001_84,CHATEAUNEUF_DU_PAPE,84037002,4.811333,44.0815,106,84
CHATEAUROUX_DEOLS_2001_36,CHATEAUROUX_DEOLS,36063001,1.741,46.869833,158,36
CHATEAU_CHINON_2001_58,CHATEAU_CHINON,58062001,3.934333,47.070333,598,58
CHEILLE_2001_37,CHEILLE,37067003,0.403833,47.260833,60,37
CHERONNAC_SAPC_2001_87,CHERONNAC_SAPC,87044001,0.76,45.753833,295,87
CHEVILLON_SAPC_2001_52,CHEVILLON_SAPC,52123003,5.113833,48.522833,170,52
CHEYLARD_SA_2001_07,CHEYLARD_SA,7064001,4.4375,44.914833,418,7
CHINON_VITI_2001_37,CHINON_VITI,37072002,0.233833,47.184333,76,37
CHIRAC_2001_48,CHIRAC,48049001,3.216667,44.536667,1000,48
CHIZE_2001_79,CHIZE,79090001,-0.346667,46.1,90,79
CLERMONTFD_2001_63,CLERMONTFD,63113001,3.149333,45.786833,331,63
COGNAC_2001_16,COGNAC,16089001,-0.315833,45.665,30,16
COGOLIN_SAPC_2001_83,COGOLIN_SAPC,83042001,6.510333,43.261667,31,83
COLOMBELAFOSSECIVC_2001_10,COLOMBELAFOSSECIVC,10102001,4.779667,48.261667,252,10
COLOMBIER_VIEUX_SA_2001_07,COLOMBIER_VIEUX_SA,7069001,4.698,45.063667,408,7
COL_DE_LA_LOGE_SAPC_2001_42,COL_DE_LA_LOGE_SAPC,42040001,3.780333,45.743833,1261,42
COL_REPUBLIQUE_2001_42,COL_REPUBLIQUE,42224003,4.470833,45.352667,1071,42
COMMENTRY_2001_03,COMMENTRY,3082003,2.746667,46.295,370,3
CONDECOURT_2001_95,CONDECOURT,95170002,1.940833,49.0415,61,95
CONTES_2001_06,CONTES,6048003,7.316667,43.8,200,6
CORTE_FDF_2001_20,CORTE_FDF,20096005,9.174333,42.299833,362,20
COUHE_2001_86,COUHE,86082003,0.176333,46.283167,149,86
CUERSPOUVEREL_2001_83,CUERSPOUVEREL,83049003,6.085833,43.2395,121,83
CUERS_2001_83,CUERS,83049005,6.131333,43.247667,72,83
CUNFIN_SAPC_2001_10,CUNFIN_SAPC,10119001,4.6785,48.0365,315,10
DAMBLAINVILLE_2001_14,DAMBLAINVILLE,14216001,-0.148667,48.928,155,14
DAMMARTIN_DDE_2001_77,DAMMARTIN_DDE,77153003,2.704167,49.062167,111,77
DANGEFLEAU_2001_86,DANGEFLEAU,86092002,0.618833,46.916667,70,86
DANNEMARIESUR_2001_25,DANNEMARIESUR,25195001,5.872833,47.201333,267,25
DAX_2001_40,DAX,40088002,-1.055,43.706667,15,40
DECIZE_2001_58,DECIZE,58095001,3.455,46.818667,192,58
DIGNE_2001_04,DIGNE,4070008,6.225,44.083333,585,4
DIJONLONGVIC_2001_21,DIJONLONGVIC,21473001,5.088333,47.267833,219,21
DINARD_2001_35,DINARD,35228001,-2.076333,48.584833,65,35
DOLDEBRETAGNE_2001_35,DOLDEBRETAGNE,35095001,-1.75,48.55,20,35
DOSNON_2001_10,DOSNON,10130001,4.224667,48.609167,115,10
DOUSSAY_2001_86,DOUSSAY,86096001,0.287,46.852667,95,86
DROYES_2001_52,DROYES,52180002,4.700167,48.5065,124,52
DUNSURAURON_2001_18,DUNSURAURON,18087003,2.557833,46.9055,167,18
DUN_LE_PALESTEL_2001_23,DUN_LE_PALESTEL,23075001,1.666833,46.317833,365,23
EAUZE_2001_32,EAUZE,32119003,0.1325,43.862333,165,32
ECHALLAT_2001_16,ECHALLAT,16123001,-0.033333,45.733333,116,16
EMBRUN_2001_05,EMBRUN,5046001,6.508667,44.571167,873,5
EPENOY_2001_25,EPENOY,25219002,6.366333,47.127167,752,25
EPINAL_2001_88,EPINAL,88160003,6.446667,48.176667,365,88
ERNEE_2001_53,ERNEE,53096004,-0.9625,48.295667,168,53
ESTERNAY_2001_51,ESTERNAY,51237002,3.579667,48.742,185,51
EUS_2001_66,EUS,66074002,2.446333,42.630167,321,66
EVREUXHUEST_2001_27,EVREUXHUEST,27347001,1.221667,49.025,138,27
FAYLBILLOT_SAPC_2001_52,FAYLBILLOT_SAPC,52197003,5.615333,47.784333,347,52
FELLETIN_2001_23,FELLETIN,23079002,2.186,45.880167,635,23
FERRIERELARCON_2001_37,FERRIERELARCON,37107001,0.875,46.9875,116,37
FERTEHAUTERIVE_2001_03,FERTEHAUTERIVE,3114001,3.330167,46.375333,226,3
FIGARI_2001_20,FIGARI,20114002,9.103667,41.505167,20,20
FIGEAC_2001_46,FIGEAC,46102006,2.033333,44.583333,290,46
FIRMINY_2001_42,FIRMINY,42095001,4.2885,45.378167,515,42
FONDETTES_2001_37,FONDETTES,37109001,0.604167,47.425333,93,37
FONTAINEDUBER_SAPC_2001_63,FONTAINEDUBER_SAPC,63263005,2.991667,45.7995,971,63
FONTENAYTRES_2001_77,FONTENAYTRES,77192002,2.823833,48.691667,105,77
FONTENAY_2001_85,FONTENAY,85092002,-0.813333,46.466667,14,85
FREJUS_2001_83,FREJUS,73157004,6.674167,45.193667,1228,73
GENERARGUES_2001_30,GENERARGUES,30129001,3.977667,44.073333,139,30
GENOLHAC_2001_30,GENOLHAC,30130001,3.9615,44.342833,519,30
GIMEUX_2001_16,GIMEUX,16152001,-0.35,45.65,22,16
GOURDON_2001_46,GOURDON,46127001,1.396667,44.745,260,46
GRAMMOND_SAPC_2001_42,GRAMMOND_SAPC,42102002,4.442833,45.564833,803,42
GRANDCHAMP_SAPC_2001_89,GRANDCHAMP_SAPC,89192001,3.1895,47.7815,180,89
GRASSE_2001_06,GRASSE,6069008,6.9395,43.653667,183,6
GRENOBLEST_GEOIRS_2001_38,GRENOBLEST_GEOIRS,38384001,5.313333,45.364,384,38
GRENOBLE_LVD_2001_38,GRENOBLE_LVD,38538002,5.8485,45.217167,220,38
GROSLAY_2001_95,GROSLAY,95288001,2.34,48.986667,88,95
GUERETGRANCHER_2001_23,GUERETGRANCHER,23096007,1.867167,46.160667,546,23
GUERET_BONGEOT_2001_23,GUERET_BONGEOT,23096001,1.879333,46.1805,402,23
GUIMPS_2001_16,GUIMPS,16160002,-0.25,45.466667,95,16
HUPARLAC_2001_12,HUPARLAC,12116099,2.763333,44.713333,860,12
HYERESPLAGE_2001_83,HYERESPLAGE,83069016,6.1545,43.115667,9,83
HYERES_2001_83,HYERES,83069001,6.147,43.1005,2,83
ILEDEBREHAT_2001_22,ILEDEBREHAT,22016002,-3.005,48.858333,26,22
ILE_DU_LEVANT_2001_83,ILE_DU_LEVANT,83069003,6.469333,43.0325,118,83
ILE_ROUSSE_2001_20,ILE_ROUSSE,20093002,8.922667,42.633167,142,20
ISENBASSIGNY_2001_52,ISENBASSIGNY,52248001,5.45,48.036667,391,52
ISSOIRE_2001_63,ISSOIRE,63178001,3.262333,45.535333,372,63
ISTRES_2001_13,ISTRES,13047002,4.988333,43.513333,44,13
JARNAC_2001_16,JARNAC,16167001,-0.15,45.688333,17,16
JOIGNY_2001_89,JOIGNY,89206001,3.370833,47.982833,75,89
JOUELESTOURS_2001_37,JOUELESTOURS,37122003,0.665333,47.337167,93,37
JUILLACLECOQ_2001_16,JUILLACLECOQ,16171001,-0.258333,45.580167,83,16
LABLACHERE_DROME_2001_07,LABLACHERE_DROME,7117001,4.234833,44.461333,265,7
LANDESGENUSSON_2001_85,LANDESGENUSSON,85119001,-1.1255,46.968333,100,85
LANDIVISIAU_2001_29,LANDIVISIAU,29264001,-4.151833,48.532,109,29
LANNION_AERO_2001_22,LANNION_AERO,22113006,-3.468667,48.755333,85,22
LANOEBLANCHE_2001_35,LANOEBLANCHE,35202001,-1.765,47.780167,89,35
LANVEOC_2001_29,LANVEOC,29120001,-4.439333,48.279333,81,29
LAUTERBOURG_SA_2001_67,LAUTERBOURG_SA,67261003,8.166667,48.97,110,67
LAVALENTRAMMES_2001_53,LAVALENTRAMMES,53094001,-0.739333,48.032333,99,53
LA_BROSSEMX_2001_77,LA_BROSSEMX,77054001,3.023333,48.351667,77,77
LA_COURTINE_2001_23,LA_COURTINE,23067001,2.263667,45.702667,772,23
LA_PESSE_2001_39,LA_PESSE,39413001,5.843,46.302833,1133,39
LA_ROCHELLE_2001_17,LA_ROCHELLE,17300004,-1.151667,46.161667,7,17
LA_ROCHE_SUR_YON_2001_85,LA_ROCHE_SUR_YON,85191003,-1.381833,46.705,88,85
LA_TOUCHE_STNA_2001_79,LA_TOUCHE_STNA,79253002,-0.204,46.459333,129,79
LA_WANTZENAU_SA_2001_67,LA_WANTZENAU_SA,67519001,7.832333,48.634167,135,67
LERE_2001_18,LERE,18125004,2.893167,47.457833,139,18
LESRICEYSCIVC_2001_10,LESRICEYSCIVC,10317002,4.3305,47.981333,274,10
LESRICEYS_2001_10,LESRICEYS,10317001,4.372,47.997167,185,10
LES_ARCS_SAPC_2001_83,LES_ARCS_SAPC,83004004,6.470833,43.451,55,83
LES_SABLES_D_OL_2001_85,LES_SABLES_D_OL,85194001,-1.793333,46.501667,5,85
LES_VANS_SA_2001_07,LES_VANS_SA,7334003,4.118,44.411667,275,7
LEVIGEANT_2001_86,LEVIGEANT,86289001,0.669667,46.242833,117,86
LEZIGNANCORBIERES_2001_11,LEZIGNANCORBIERES,11203004,2.728833,43.173,60,11
LE_BOURGET_2001_95,LE_BOURGET,95088001,2.427667,48.967333,49,95
LE_CASTELLET_SAPC_2001_83,LE_CASTELLET_SAPC,83035002,5.770167,43.184,66,83
LE_FIED_SA_2001_39,LE_FIED_SA,39225001,5.72,46.766667,525,39
LE_LOUROUX_2001_37,LE_LOUROUX,37136001,0.788333,47.158333,100,37
LE_LUC_2001_83,LE_LUC,83031001,6.386167,43.383167,80,83
LE_MANS_2001_72,LE_MANS,72181001,0.194167,47.945833,51,72
LE_PUYLOUDES_2001_43,LE_PUYLOUDES,43062001,3.764,45.0745,833,43
LE_TATRE_2001_16,LE_TATRE,16380001,-0.216667,45.4,95,16
LE_VIEUX_CERIER_SAPC_2001_16,LE_VIEUX_CERIER_SAPC,16403001,0.442,45.9675,162,16
LIERGUES_SAPC_2001_69,LIERGUES_SAPC,69114001,4.650333,45.9765,290,69
LIGRE_2001_37,LIGRE,37129002,0.273,47.112333,67,37
LILLELESQUIN_2001_59,LILLELESQUIN,59343001,3.0975,50.57,47,59
LIMOGESBELLEGARDE_2001_87,LIMOGESBELLEGARDE,87085006,1.175,45.861167,402,87
LOGESMARGUERON_2001_10,LOGESMARGUERON,10202001,4.098667,48.082833,150,10
LORIENTLANN_BIHOUE_2001_56,LORIENTLANN_BIHOUE,56185001,-3.435667,47.762833,45,56
LOUHANS_2001_71,LOUHANS,71263002,5.25,46.633333,200,71
LOUVIGNEDUDESERT_2001_35,LOUVIGNEDUDESERT,35162003,-1.129833,48.479333,153,35
LUCELLE_SAPC_2001_68,LUCELLE_SAPC,68190001,7.268167,47.438333,690,68
LUC_SUR_MER_2001_14,LUC_SUR_MER,14384001,-0.358333,49.315,10,14
LUGNY_SA_2001_71,LUGNY_SA,71267002,4.81,46.477833,280,71
LURCYLEVIS_SA_2001_03,LURCYLEVIS_SA,3155003,2.947667,46.718333,225,3
LUS_L_CROIX_HTE_2001_26,LUS_L_CROIX_HTE,26168001,5.710833,44.672833,1059,26
LUXEUIL_2001_70,LUXEUIL,70473001,6.363833,47.787,271,70
L_AIGLE_2001_61,L_AIGLE,61214002,0.662333,48.7585,232,61
L_OUDON_LIEURY_SAPC_2001_14,L_OUDON_LIEURY_SAPC,14624001,-0.009167,48.9895,52,14
MACON_2001_71,MACON,71270004,4.83,46.308333,216,71
MAISONNAIS_2001_18,MAISONNAIS,18135001,2.2235,46.672667,219,18
MALLEMORT_2001_13,MALLEMORT,13053002,5.206667,43.715,128,13
MARCE_2001_49,MARCE,49188001,-0.317,47.561833,53,49
MARCIGNY_2001_71,MARCIGNY,71275002,4.033333,46.276667,250,71
MARCILLAC_2001_19,MARCILLAC,19125001,2.039833,45.2835,598,19
MARIGNANE_2001_13,MARIGNANE,13054001,5.216,43.437667,9,13
MARIGNY_BRIZAY_2001_86,MARIGNY_BRIZAY,86146001,0.385333,46.75,120,86
MARTHON_2001_16,MARTHON,16211002,0.44,45.61,120,16
MARTIGNEF_2001_35,MARTIGNEF,35167001,-1.318333,47.831667,82,35
MESSY_2001_77,MESSY,77292001,2.698333,48.968167,75,77
MEYMAC_2001_19,MEYMAC,19136001,2.145,45.536667,710,19
MILLAU_2001_12,MILLAU,12145001,3.0195,44.1185,712,12
MOLESMES_SAPC_2001_89,MOLESMES_SAPC,89260001,3.463833,47.610333,355,89
MONTAUBAN_2001_82,MONTAUBAN,82121002,1.376667,44.028,106,82
MONTBARD_SAPC_2001_21,MONTBARD_SAPC,21425001,4.3305,47.6285,209,21
MONTDEMARSAN_2001_40,MONTDEMARSAN,40192003,-0.5,43.89,39,40
MONTEILS_2001_12,MONTEILS,12150099,2.0,44.273333,240,12
MONTELIMAR_2001_26,MONTELIMAR,26198001,4.733,44.581167,73,26
MONTERFIL_2001_35,MONTERFIL,35187001,-2.0,48.061667,88,35
MONTHOIS_2001_08,MONTHOIS,8303001,4.711833,49.316833,126,8
MONTIGNAC_2001_16,MONTIGNAC,16226001,0.1015,45.777167,63,16
MONTLIEU_SAPC_2001_17,MONTLIEU_SAPC,17243002,-0.291833,45.220167,89,17
MONTMARAULT_2001_03,MONTMARAULT,3186001,2.9525,46.314833,466,3
MONTPELLIERAEROPORT_2001_34,MONTPELLIERAEROPORT,34154001,3.964667,43.576167,1,34
MONTPELLIERENSAM_2001_34,MONTPELLIERENSAM,34172001,3.858333,43.618333,45,34
MONT_AIGOUAL_2001_30,MONT_AIGOUAL,30339001,3.5815,44.121333,1567,30
MORTEAU_SA_2001_25,MORTEAU_SA,25411005,6.612167,47.062333,760,25
MOUROUX_SAPC_2001_77,MOUROUX_SAPC,77320002,3.057,48.847167,148,77
MOUTHOUMET_2001_11,MOUTHOUMET,11260001,2.525,42.96,558,11
NANCYESSEY_2001_54,NANCYESSEY,54526001,6.2215,48.687833,212,54
NANCYOCHEY_2001_54,NANCYOCHEY,54405001,5.959833,48.581,336,54
NANGIS_2001_77,NANGIS,77327001,3.008333,48.563333,125,77
NANTESBOUGUENAIS_2001_44,NANTESBOUGUENAIS,44020001,-1.608833,47.15,26,44
NEMOURS_2001_77,NEMOURS,77333003,2.715,48.27,73,77
NEUVIC_2001_19,NEUVIC,19148001,2.2815,45.379167,615,19
NEUVIZY_2001_08,NEUVIZY,8324002,4.533333,49.628333,212,8
NEVERSMARZY_2001_58,NEVERSMARZY,58160001,3.112667,46.998333,175,58
NIMESCOURBESSAC_2001_30,NIMESCOURBESSAC,30189001,4.406333,43.856833,59,30
NIMESGARONS_2001_30,NIMESGARONS,30258001,4.412833,43.772833,94,30
NIORT_2001_79,NIORT,79191005,-0.400167,46.315833,57,79
NOIRMOUTIER_EN_2001_85,NOIRMOUTIER_EN,85163001,-2.257167,47.004667,3,85
NOISYSURECOLE_2001_77,NOISYSURECOLE,77339001,2.496667,48.356667,102,77
NOYERS_2001_89,NOYERS,89279001,4.002,47.693,185,89
NYONS_CSP_2001_26,NYONS_CSP,26220009,5.121667,44.356667,270,26
ORANGE_2001_84,ORANGE,84087001,4.861,44.1445,57,84
ORCEMONT_2001_78,ORCEMONT,78464001,1.803333,48.603333,164,78
OUROUER_2001_18,OUROUER,58204001,3.305,47.058667,262,58
OYONNAX_2001_01,OYONNAX,1283001,5.661667,46.271667,535,1
PAUUZEIN_2001_64,PAUUZEIN,64549001,-0.416333,43.385,183,64
PERPIGNAN_2001_66,PERPIGNAN,66136004,2.885,42.701667,48,66
PERREUX_2001_42,PERREUX,42170001,4.110667,46.028167,297,42
PEYROLLES_FORET_2001_13,PEYROLLES_FORET,13074002,5.586667,43.623333,295,13
PLOERMEL_2001_56,PLOERMEL,56165003,-2.3975,47.950833,65,56
PLOUMANACH_2001_22,PLOUMANACH,22168001,-3.473167,48.825833,55,22
POITIERSBIARD_2001_86,POITIERSBIARD,86027001,0.314333,46.593833,125,86
POMEROL_2001_33,POMEROL,33328001,-0.188333,44.931667,35,33
POMMERITJAUDY_2001_22,POMMERITJAUDY,22247001,-3.245,48.741667,50,22
PONTARION_SAPC_2001_23,PONTARION_SAPC,23155001,1.852833,45.995667,455,23
PONTARLIER_2001_25,PONTARLIER,25462001,6.32,46.927,808,25
PORTDEBOUCSJ_2001_13,PORTDEBOUCSJ,13077001,5.0025,43.432167,18,13
POUILLY_EN_AUX_SAPC_2001_21,POUILLY_EN_AUX_SAPC,21501003,4.561,47.251333,412,21
POUZAUGES_SA_2001_85,POUZAUGES_SA,85182004,-0.830833,46.766,153,85
PREENPAIL_SAPC_2001_53,PREENPAIL_SAPC,53185001,-0.183167,48.452,277,53
PREVERANGES_2001_18,PREVERANGES,18187004,2.2365,46.425333,462,18
PTE_DE_CHEMOULIN_2001_44,PTE_DE_CHEMOULIN,44184001,-2.2985,47.233667,14,44
PUGET_THENIERS_SAPC_2001_06,PUGET_THENIERS_SAPC,6099004,6.892333,43.956833,449,6
RAMOUZENS_2001_32,RAMOUZENS,32338001,0.180833,43.818833,164,32
RAUCOURT_2001_08,RAUCOURT,8354002,4.963333,49.605,200,8
REGUSSE_2001_83,REGUSSE,83102001,6.128333,43.655,525,83
REIGNAC_2001_37,REIGNAC,37192001,0.899,47.219333,90,37
REIMSCOURCY_2001_51,REIMSCOURCY,51183001,4.050667,49.306167,91,51
RENNESST_JACQUES_2001_35,RENNESST_JACQUES,35281001,-1.734,48.068833,36,35
RETHEL_2001_08,RETHEL,8362003,4.373333,49.516667,115,8
ROISSY_2001_95,ROISSY,95527001,2.534333,49.015167,108,95
RONSENAC_2001_16,RONSENAC,16283002,0.253333,45.478333,90,16
ROQUESTERON_2001_06,ROQUESTERON,6106002,7.006167,43.876333,405,6
ROUENBOOS_2001_76,ROUENBOOS,76116001,1.178333,49.3895,156,76
ROUFFACH_SA_2001_68,ROUFFACH_SA,68287003,7.286833,47.965333,285,68
ROYANMEDIS_2001_17,ROYANMEDIS,17306004,-0.974667,45.633,12,17
ROZIERENDONZY_2001_42,ROZIERENDONZY,42193001,4.278333,45.803833,530,42
RUFFEC_2001_16,RUFFEC,16292001,0.178167,46.022667,121,16
SAINTES_2001_17,SAINTES,17415003,-0.652,45.761167,38,17
SAINTE_GEMME_LA_PLAINE_SAPC_2001_85,SAINTE_GEMME_LA_PLAINE_SAPC,85216001,-1.121333,46.440167,3,85
SAINT_DIDIER_SAPC_2001_03,SAINT_DIDIER_SAPC,3226001,3.850167,46.365333,293,3
SAINT_GEORGES_D_2001_14,SAINT_GEORGES_D,85217001,-1.295,46.95,48,85
SALIGNAC_2001_17,SALIGNAC,17418001,-0.4225,45.670667,15,17
SALINDRES_2001_30,SALINDRES,30305001,4.1525,44.1745,191,30
SALON_DE_PROVENCE_2001_13,SALON_DE_PROVENCE,13103001,5.108,43.612833,58,13
SANCERRE_2001_18,SANCERRE,18241002,2.799,47.336167,240,18
SARLAT_2001_24,SARLAT,24520005,1.225833,44.898667,203,24
SARTENE_2001_20,SARTENE,20272004,8.979333,41.652333,62,20
SAULIEU_2001_21,SAULIEU,21584001,4.215,47.264167,586,21
SAUTERNES_2001_33,SAUTERNES,33504001,-0.326833,44.544333,65,33
SAVIGNY_CLAIRIS_2001_89,SAVIGNY_CLAIRIS,89380001,3.104,48.0865,184,89
SAVIGNY_LES_BEA_2001_21,SAVIGNY_LES_BEA,21590001,4.836667,47.056333,246,21
SAVIGNY_VERON_2001_37,SAVIGNY_VERON,37242002,0.149333,47.227,33,37
SELESTAT_SA_2001_67,SELESTAT_SA,67462004,7.478333,48.272833,173,67
SEMUR_EN_AUXOIS_SAPC_2001_21,SEMUR_EN_AUXOIS_SAPC,21603001,4.34,47.482,314,21
SENNECEY_2001_71,SENNECEY,71512001,4.879167,46.620167,190,71
SENS_2001_89,SENS,89387002,3.288667,48.167667,70,89
SEPTSARGES_2001_55,SEPTSARGES,55484001,5.155,49.276333,293,55
SETE_2001_34,SETE,34301002,3.692167,43.397333,75,34
SEVRY_2001_18,SEVRY,18251001,2.804667,47.138,205,18
SIGOGNE_2001_16,SIGOGNE,16369001,-0.15,45.735,75,16
SOLENZARA_2001_20,SOLENZARA,20342001,9.400833,41.921833,12,20
SOSPEL_2001_06,SOSPEL,6136005,7.433667,43.862833,843,6
STANDREAPCHON_2001_42,STANDREAPCHON,42199002,3.933333,46.025,380,42
STANTHEME_2001_63,STANTHEME,63319002,3.886167,45.575833,1263,63
STCHRISTOPHESURNAIS_2001_37,STCHRISTOPHESURNAIS,37213003,0.464333,47.6155,107,37
STDESIRAT_SA_2001_07,STDESIRAT_SA,7228001,4.783667,45.260333,275,7
STEPAIN_2001_37,STEPAIN,37216002,0.604833,47.157167,112,37
STETIENN_MET_2001_42,STETIENN_MET,42218007,4.417667,45.421833,590,42
STE_MARIE_CUINES_2001_73,STE_MARIE_CUINES,73255003,6.307167,45.3435,460,73
STE_MENEHOULD_2001_51,STE_MENEHOULD,51507007,4.885,49.073333,164,51
STGENESCHPLLEINRAE_2001_63,STGENESCHPLLEINRAE,63345002,3.019333,45.723,893,63
STGERMAINL_HE_2001_63,STGERMAINL_HE,63353003,3.532667,45.461,1070,63
STJUSTENCHEV_2001_42,STJUSTENCHEV,42248002,3.844167,45.9085,612,42
STMARTINDUM_2001_21,STMARTINDUM,21561003,4.781167,47.4005,578,21
STNICOLAS_2001_03,STNICOLAS,82169001,1.026667,44.055,82,82
STPOURCAINBES_2001_03,STPOURCAINBES,3253001,3.615833,46.491667,268,3
STVALLIER_2001_71,STVALLIER,71486001,4.368333,46.641667,280,71
ST_AULAIS_2001_16,ST_AULAIS,16301001,-0.033333,45.45,95,16
ST_BRIEUC_2001_22,ST_BRIEUC,22372001,-2.852,48.534667,135,22
ST_GERMAIN_BELL_2001_87,ST_GERMAIN_BELL,87146002,1.4995,45.6125,418,87
ST_GIRONS_2001_09,ST_GIRONS,9289001,1.106833,43.005333,414,9
ST_LAURENT_SA_2001_39,ST_LAURENT_SA,39487004,5.953333,46.585,880,39
ST_LEONARD_NOBL_2001_87,ST_LEONARD_NOBL,87161002,1.4965,45.828667,346,87
ST_MICHEL_MAUR_SAPC_2001_73,ST_MICHEL_MAUR_SAPC,73261003,6.4645,45.218167,698,73
ST_M_HINX_STNAINRAE_2001_40,ST_M_HINX_STNAINRAE,40272002,-1.299333,43.570833,37,40
ST_NAZAIREMONTOIR_2001_44,ST_NAZAIREMONTOIR,44103001,-2.1545,47.313833,3,44
ST_PAUL_FENOUIL_2001_66,ST_PAUL_FENOUIL,66187004,2.558333,42.808333,205,66
ST_SATURNIN_LES_APT_2001_84,ST_SATURNIN_LES_APT,84118001,5.372,43.930833,322,84
ST_SYLVAIN_SAPC_2001_14,ST_SYLVAIN_SAPC,14659001,-0.234333,49.06,62,14
ST_THIERRYCIVC_2001_51,ST_THIERRYCIVC,51518001,3.960667,49.300833,135,51
ST_TROPEZ_2001_83,ST_TROPEZ,83119003,6.648333,43.271667,3,83
ST_YAN_2001_71,ST_YAN,71491001,4.0165,46.408333,242,71
SUBLAINES_2001_37,SUBLAINES,37253001,0.993167,47.265,111,37
SUPERBESSE_2001_63,SUPERBESSE,63038002,2.865833,45.501667,1287,63
TALLARD_2001_05,TALLARD,5170001,6.033333,44.452167,593,5
TARBESLOURDESPYRENEES_2001_65,TARBESLOURDESPYRENEES,65344001,0.0,43.188,360,65
TENDU_SAPC_2001_36,TENDU_SAPC,36219001,1.588333,46.6615,155,36
THOIRY_2001_01,THOIRY,1419001,5.968333,46.241667,605,1
TILCHATEL_SAPC_2001_21,TILCHATEL_SAPC,21638002,5.2075,47.544833,283,21
TORCY_2001_71,TORCY,71540001,4.466667,46.766667,322,71
TORCY_2001_77,TORCY,71540001,4.466667,46.766667,322,71
TORREILLES_2001_66,TORREILLES,66212001,2.978333,42.755,7,66
TOULON_2001_83,TOULON,83137001,5.900667,43.115833,3,83
TOULOUSEBLAGNAC_2001_31,TOULOUSEBLAGNAC,31069001,1.378833,43.621,151,31
TOULOUSEFRANCAZAL_2001_31,TOULOUSEFRANCAZAL,31157001,1.372667,43.540333,164,31
TOURS_2001_37,TOURS,37179001,0.727333,47.4445,108,37
TRAPPES_2001_78,TRAPPES,78621001,2.009833,48.774333,167,78
TRESSERRE_2001_66,TRESSERRE,66214001,2.826667,42.545,148,66
TROYESBARBEREY_2001_10,TROYESBARBEREY,10030001,4.02,48.324667,112,10
TULLE_2001_19,TULLE,19272001,1.740333,45.2425,235,19
VAILLY_SAULDRE_2001_18,VAILLY_SAULDRE,18269003,2.615833,47.453833,226,18
VAISON_LA_ROMAINE_2001_84,VAISON_LA_ROMAINE,84137001,5.063333,44.258333,240,84
VALDEROURE_2001_06,VALDEROURE,6154002,6.7345,43.792333,1105,6
VALENCECHABEUI_2001_26,VALENCECHABEUI,26064001,4.971833,44.914833,163,26
VANNESSENE_2001_56,VANNESSENE,56243001,-2.714167,47.6045,3,56
VERTUSCIVC_2001_51,VERTUSCIVC,51612003,3.995333,48.9025,150,51
VERT_TOULONCIVC_2001_51,VERT_TOULONCIVC,51611001,3.906,48.84,155,51
VIERZON_2001_18,VIERZON,18279005,2.073167,47.237833,155,18
VIRE_2001_14,VIRE,14762001,-0.863833,48.878167,103,14
VITROLLES_2001_05,VITROLLES,5184002,5.951667,44.408667,595,5
VITRYLECROISECIVC_2001_10,VITRYLECROISECIVC,10438001,4.554167,48.144333,237,10
VIVES_2001_66,VIVES,66233001,2.760833,42.5365,261,66
VOULTON_SAPC_2001_77,VOULTON_SAPC,77530001,3.350333,48.612667,175,77
WANGENBOURG_SAPC_2001_67,WANGENBOURG_SAPC,67122001,7.307,48.6425,460,67
