nom_fichier,station,id,longitude,latitude,altitude,departement
ABBEVILLE_2015_80,ABBEVILLE,80001005,1.835,50.106667,68,80
AERO_ROANNE_2015_42,AERO_ROANNE,42253002,4.0045,46.055,337,42
AGENLA_GARENNE_2015_47,AGENLA_GARENNE,47091001,0.594667,44.172167,58,47
AHUN_LYCEE_2015_23,AHUN_LYCEE,23001001,2.029833,46.093333,460,23
AIGUILLES_ROUGESNIVOSE_2015_74,AIGUILLES_ROUGESNIVOSE,74056405,6.896833,45.986333,2365,74
AIXLES_MILLES_2015_13,AIXLES_MILLES,13001006,5.365667,43.504667,106,13
AJACCIO_2015_20,AJACCIO,20004002,8.792667,41.918,5,20
ALAIGNE_2015_11,ALAIGNE,11004001,2.098333,43.1125,293,11
ALBA_SA_2015_07,ALBA_SA,7005002,4.582833,44.538833,223,7
ALBIEZ_2015_73,ALBIEZ,73013001,6.341,45.2155,1540,73
ALBI_2015_81,ALBI,81004006,2.141667,43.928333,170,81
ALBON_2015_26,ALBON,26002003,4.822333,45.252333,153,26
ALENCON_2015_61,ALENCON,61001001,0.110167,48.4455,143,61
ALISTRO_2015_20,ALISTRO,20303002,9.5415,42.259667,65,20
ALLAINES_2015_28,ALLAINES,28002001,1.846833,48.1905,133,28
AMBERIEU_2015_01,AMBERIEU,1089001,5.329333,45.9765,250,1
AMBERT_2015_63,AMBERT,63003004,3.742667,45.516833,555,63
AMBOISE_LYCEE_2015_37,AMBOISE_LYCEE,37003004,0.977,47.394167,116,37
ANGERS_VILLE_2015_49,ANGERS_VILLE,49007011,-0.5605,47.4535,35,49
ANGRIE_2015_49,ANGRIE,49008001,-0.970333,47.561667,65,49
ANZATLELUGUET_SAPC_2015_63,ANZATLELUGUET_SAPC,63006002,3.016,45.320167,1270,63
ARBENT_2015_01,ARBENT,1014001,5.65,46.266667,535,1
ARGENTAN_2015_61,ARGENTAN,61006005,0.0115,48.718167,170,61
ARGENTAT_2015_19,ARGENTAT,19010001,1.9375,45.101333,190,19
ARGENTON_2015_36,ARGENTON,36006001,1.518333,46.586667,108,36
ARVIEUX_2015_05,ARVIEUX,5007003,6.728,44.796,1825,5
ARZAL_2015_56,ARZAL,56004001,-2.382667,47.512667,26,56
ASCROS_2015_06,ASCROS,6005001,7.013667,43.922,1173,6
AUBAGNE_2015_13,AUBAGNE,13005001,5.578333,43.29,131,13
AUBENAS_SA_2015_07,AUBENAS_SA,7019005,4.409833,44.601667,176,7
AUBIGNYSURNERE_2015_18,AUBIGNYSURNERE,18015003,2.427333,47.4995,176,18
AUBUSSON_SAPC_2015_23,AUBUSSON_SAPC,23008004,2.187833,45.957833,486,23
AUCH_2015_32,AUCH,32013005,0.601167,43.689,122,32
AUPS_2015_83,AUPS,83007004,6.1875,43.641,497,83
AURAY_2015_56,AURAY,56007001,-2.971,47.659167,26,56
AUSSOISCLIM_2015_73,AUSSOISCLIM,73023001,6.744333,45.229833,1467,73
AUXERREPERRIGNY_2015_89,AUXERREPERRIGNY,89295001,3.549667,47.824667,152,89
AUZANCES_SAPC_2015_23,AUZANCES_SAPC,23013001,2.489333,46.0215,564,23
AVIGNON_2015_84,AVIGNON,84007005,4.9025,43.911333,34,84
AVIZECIVC_2015_51,AVIZECIVC,51029004,4.01,48.978,175,51
AVORD_2015_18,AVORD,18092001,2.642167,47.052167,175,18
AYZE_2015_74,AYZE,74024001,6.431333,46.0795,449,74
BALEMULHOUSE_2015_68,BALEMULHOUSE,68297001,7.51,47.614333,263,68
BANDESAPT_2015_88,BANDESAPT,88033002,6.991833,48.345833,590,88
BARCELONNETTE_2015_04,BARCELONNETTE,4019005,6.65,44.388333,1135,4
BASTIA_2015_20,BASTIA,20148001,9.485167,42.540667,10,20
BAUDEMONT_SAPC_2015_71,BAUDEMONT_SAPC,71022001,4.296667,46.2765,337,71
BEAUBERY_2015_71,BEAUBERY,71025001,4.400167,46.406,465,71
BEAUCOUZE_2015_49,BEAUCOUZE,49020001,-0.614333,47.479,50,49
BEAUFORTSGERV_2015_26,BEAUFORTSGERV,26035001,5.139,44.778,379,26
BEAUMONT_DU_LAC_2015_87,BEAUMONT_DU_LAC,87009003,1.863167,45.8015,670,87
BEAUMONT_SAPC_2015_37,BEAUMONT_SAPC,37023002,1.211667,47.177167,126,37
BEAUVAISTILLE_2015_60,BEAUVAISTILLE,60639001,2.127167,49.4465,89,60
BEDARIEUX_2015_34,BEDARIEUX,34028001,3.156667,43.615,224,34
BELLECOTENIVOSE_2015_73,BELLECOTENIVOSE,73071403,6.771167,45.489,2992,73
BELLEGARDEEND_2015_26,BELLEGARDEEND,26047001,5.454333,44.535167,1017,26
BELLEME_SAPC_2015_61,BELLEME_SAPC,61426001,0.55,48.373833,168,61
BELLE_ILELE_TALUT_2015_56,BELLE_ILELE_TALUT,56009001,-3.218333,47.294333,34,56
BENASSAY_SAPC_2015_86,BENASSAY_SAPC,86021002,0.054833,46.568333,150,86
BENEVENT_SAPC_2015_23,BENEVENT_SAPC,23021001,1.6285,46.121,460,23
BERGERAC_2015_24,BERGERAC,24037002,0.483333,44.851667,51,24
BERGHEIMINRAE_2015_68,BERGHEIMINRAE,68028001,7.345833,48.216333,309,68
BESANCON_2015_25,BESANCON,25056001,5.988833,47.249,307,25
BESIGNAN_2015_26,BESIGNAN,26050001,5.317,44.3205,556,26
BESSEY_2015_21,BESSEY,21065001,4.743167,47.086,593,21
BESSEY_2015_42,BESSEY,21065001,4.743167,47.086,593,21
BEZIERSVIAS_2015_34,BEZIERSVIAS,34209002,3.352667,43.322,15,34
BIARRITZPAYSBASQUE_2015_64,BIARRITZPAYSBASQUE,64024001,-1.534333,43.469333,71,64
BIGNAN_2015_56,BIGNAN,56017002,-2.766667,47.883333,160,56
BLACE_2015_69,BLACE,69023002,4.642,46.0345,340,69
BLANCARCI_2015_36,BLANCARCI,36018004,1.088333,46.625,108,36
BLOIS_2015_41,BLOIS,41281001,1.212333,47.6785,119,41
BOCOGNANO_2015_20,BOCOGNANO,20040004,9.103333,42.104167,1019,20
BOEN_SUR_LIGNON_2015_42,BOEN_SUR_LIGNON,42019004,4.007333,45.756333,448,42
BOIGNEVILLE_2015_91,BOIGNEVILLE,91069001,2.381167,48.3255,115,91
BONNEVALNIVOSE_2015_73,BONNEVALNIVOSE,73040402,7.051167,45.351667,2741,73
BONNEVILLE_2015_74,BONNEVILLE,74042001,6.408333,46.078333,447,74
BORS_2015_16,BORS,16052001,0.118333,45.346667,94,16
BOURBON_SAPC_2015_03,BOURBON_SAPC,3036002,3.0495,46.58,270,3
BOURDEAUX_2015_26,BOURDEAUX,26056001,5.142833,44.580167,432,26
BOURGES_2015_18,BOURGES,18033001,2.359833,47.059167,161,18
BOURG_ST_MAURICE_2015_73,BOURG_ST_MAURICE,73054001,6.763333,45.612667,865,73
BOURRANINRAE_2015_47,BOURRANINRAE,47038002,0.413167,44.331833,55,47
BOUYSURORVIN_2015_10,BOUYSURORVIN,10057001,3.504833,48.439833,102,10
BRANCEILLES_2015_19,BRANCEILLES,19029001,1.704833,45.011167,190,19
BREIL_SUR_ROYA_2015_06,BREIL_SUR_ROYA,6023004,7.513667,43.940167,305,6
BRESTGUIPAVAS_2015_29,BRESTGUIPAVAS,29075001,-4.391167,48.453833,92,29
BRIVE_2015_19,BRIVE,19031008,1.473333,45.146667,115,19
BROUZET_LES_ALES_2015_30,BROUZET_LES_ALES,30055001,4.284833,44.131167,603,30
BUGEAT_2015_19,BUGEAT,19033001,1.930333,45.602667,694,19
BUIS_BARONNIES_2015_26,BUIS_BARONNIES,26063002,5.270667,44.277833,390,26
BUSTINCE_ST_JEAN_2015_64,BUSTINCE_ST_JEAN,64155001,-1.2145,43.167333,179,64
BUXY_2015_71,BUXY,71070001,4.697667,46.709833,230,71
BU_SAPC_2015_28,BU_SAPC,28064002,1.493167,48.8015,132,28
CADAUJACINRAE_2015_33,CADAUJACINRAE,33080001,-0.559333,44.752833,20,33
CADENET_2015_84,CADENET,84026003,5.353,43.718833,152,84
CAENCARPIQUET_2015_14,CAENCARPIQUET,14137001,-0.456167,49.18,67,14
CALAISMARCK_2015_62,CALAISMARCK,62548001,1.966667,50.966667,3,62
CALVI_2015_20,CALVI,20050001,8.7915,42.5295,57,20
CAMPS_2015_19,CAMPS,19034001,1.988333,44.983667,519,19
CANNES_2015_06,CANNES,6029003,7.066667,43.516667,10,6
CAPFERRET_2015_33,CAPFERRET,33236002,-1.252,44.630667,8,33
CAPPELLEENPEV_2015_59,CAPPELLEENPEV,59129001,3.1785,50.494167,51,59
CAP_PERTUSATO_2015_20,CAP_PERTUSATO,20041001,9.178333,41.374833,107,20
CARCASSONNE_2015_11,CARCASSONNE,11069001,2.2955,43.215333,128,11
CASTANET_LE_HAUT_SAPC_2015_34,CASTANET_LE_HAUT_SAPC,34055003,2.976167,43.6675,424,34
CASTELNAUDARY_2015_11,CASTELNAUDARY,11076003,1.953333,43.316667,160,11
CAUNESMINERVOIS_2015_11,CAUNESMINERVOIS,11081001,2.525167,43.345333,302,11
CHALMAZEL_2015_42,CHALMAZEL,42039002,3.853167,45.705,855,42
CHALONCHAMPFO_2015_71,CHALONCHAMPFO,71081001,4.825667,46.827,187,71
CHALUS_SAPC_2015_87,CHALUS_SAPC,87032004,0.979,45.646167,403,87
CHAMBERYAIX_2015_73,CHAMBERYAIX,73329001,5.878,45.641333,235,73
CHAMONIX_2015_74,CHAMONIX,74056001,6.8775,45.9295,1042,74
CHANNAY_LATHAN_2015_37,CHANNAY_LATHAN,37055002,0.255333,47.4795,87,37
CHAPELLEENVERCORS_SAPC_2015_26,CHAPELLEENVERCORS_SAPC,26074001,5.422167,44.9615,879,26
CHAPELLEGUILLAUME_SAPC_2015_28,CHAPELLEGUILLAUME_SAPC,28078001,0.905833,48.112,197,28
CHAREILCINTRAT_SAPC_2015_03,CHAREILCINTRAT_SAPC,3059001,3.225667,46.275833,286,3
CHARGEYLESGRAY_2015_70,CHARGEYLESGRAY,70132001,5.5955,47.507,244,70
CHARLIEU_2015_42,CHARLIEU,42052002,4.174167,46.164,278,42
CHARMES_SAPC_2015_03,CHARMES_SAPC,3061001,3.233667,46.0635,330,3
CHARTRES_2015_28,CHARTRES,28070001,1.501167,48.4605,155,28
CHATEAUDOLONNE_2015_85,CHATEAUDOLONNE,85060002,-1.725833,46.477167,27,85
CHATEAUROUX_DEOLS_2015_36,CHATEAUROUX_DEOLS,36063001,1.741,46.869833,158,36
CHATILLONCIVC_2015_51,CHATILLONCIVC,51136003,3.7595,49.098667,153,51
CHATILLON_SEINE_2015_21,CHATILLON_SEINE,21154001,4.581333,47.849333,262,21
CHAUMONT_SAPC_2015_55,CHAUMONT_SAPC,55108004,5.264667,48.931333,294,55
CHAUXDESPRESINRAE_2015_39,CHAUXDESPRESINRAE,39130002,5.865,46.509,854,39
CHEILLE_2015_37,CHEILLE,37067003,0.403833,47.260833,60,37
CHERONNAC_SAPC_2015_87,CHERONNAC_SAPC,87044001,0.76,45.753833,295,87
CHINON_VITI_2015_37,CHINON_VITI,37072002,0.233833,47.184333,76,37
CHIROUBLES_2015_69,CHIROUBLES,69058002,4.667167,46.182667,415,69
CHISSEYLESMACON_2015_71,CHISSEYLESMACON,71130002,4.723,46.520833,254,71
CHOLET_2015_49,CHOLET,49099004,-0.891667,46.996667,130,49
CHOUE_2015_41,CHOUE,41053001,0.912833,47.969167,163,41
CHOUILLY_2015_51,CHOUILLY,51153001,3.981667,49.017833,172,51
CIVRAY_2015_86,CIVRAY,86078002,0.298667,46.160333,143,86
CLAMECY_2015_58,CLAMECY,58079004,3.509,47.441,215,58
CLERMONTFD_2015_63,CLERMONTFD,63113001,3.149333,45.786833,331,63
CLUSAZ_LA_2015_74,CLUSAZ_LA,74080001,6.428333,45.898333,1150,74
COLLOBRIERES_SAPC_2015_83,COLLOBRIERES_SAPC,83043005,6.258,43.232167,128,83
COLOMBELAFOSSECIVC_2015_10,COLOMBELAFOSSECIVC,10102001,4.779667,48.261667,252,10
COLTINES_2015_15,COLTINES,15053001,2.990667,45.074667,979,15
COL_AGNELNIVOSE_2015_05,COL_AGNELNIVOSE,5077402,6.972167,44.686,2630,5
COL_DE_PORTENIVOSE_2015_38,COL_DE_PORTENIVOSE,38472403,5.765333,45.295,1325,38
COL_REPUBLIQUE_2015_42,COL_REPUBLIQUE,42224003,4.470833,45.352667,1071,42
COMBLOUX_2015_74,COMBLOUX,74083001,6.643333,45.898333,940,74
COMIAC_2015_46,COMIAC,46071001,2.0,44.965333,562,46
CONCA_2015_20,CONCA,20092001,9.3485,41.717,253,20
CONDE_SAPC_2015_55,CONDE_SAPC,55123002,5.182167,48.867167,265,55
CONQUEYRAC_2015_30,CONQUEYRAC,30093003,3.9,43.9405,135,30
CORNUS_2015_12,CORNUS,12077002,3.192167,43.922333,718,12
COS_2015_09,COS,9099001,1.5645,42.970167,519,9
COURCITE_SAPC_2015_53,COURCITE_SAPC,53083001,-0.222333,48.318667,172,53
COURPIERE_2015_63,COURPIERE,63125001,3.533333,45.75,325,63
CREIL_2015_60,CREIL,60175001,2.520833,49.252167,88,60
CRUZY_SAPC_2015_89,CRUZY_SAPC,89131001,4.2245,47.852,291,89
DAUPHIN_2015_04,DAUPHIN,4068001,5.767167,43.909833,427,4
DEOLS_PARC_2015_36,DEOLS_PARC,36063002,1.705833,46.83,162,36
DIEPPE_2015_76,DIEPPE,76217001,1.09,49.932833,40,76
DIE_2015_26,DIE,26113003,5.3435,44.767667,384,26
DINARD_2015_35,DINARD,35228001,-2.076333,48.584833,65,35
DIVAJEU_2015_26,DIVAJEU,26115001,4.990333,44.726833,175,26
DONCOURTLESCONFLANS_2015_54,DONCOURTLESCONFLANS,54171001,5.929333,49.1535,235,54
DONZERE_2015_26,DONZERE,26116001,4.711667,44.443333,90,26
DORANS_2015_90,DORANS,90035001,6.837,47.591667,401,90
DOUSSAY_2015_86,DOUSSAY,86096001,0.287,46.852667,95,86
DOUVAINE_SA_2015_74,DOUVAINE_SA,74105002,6.318333,46.302333,470,74
DRAGUIGNAN_SAPC_2015_83,DRAGUIGNAN_SAPC,83050007,6.453333,43.526167,173,83
DUNKERQUE_2015_59,DUNKERQUE,59183001,2.3395,51.055833,11,59
DURBANCORBIERES_2015_11,DURBANCORBIERES,11124003,2.819167,42.993167,120,11
DURENQUE_SAPC_2015_12,DURENQUE_SAPC,12092001,2.6445,44.111833,812,12
ECTOT_LES_BAONS_2015_76,ECTOT_LES_BAONS,76228001,0.816667,49.646667,150,76
EGLETONS_2015_19,EGLETONS,19073006,2.059167,45.398833,610,19
EPINAL_2015_88,EPINAL,88160003,6.446667,48.176667,365,88
ERNEE_2015_53,ERNEE,53096004,-0.9625,48.295667,168,53
ERROUVILLE_SAPC_2015_54,ERROUVILLE_SAPC,54181001,5.909833,49.42,373,54
ESTERNAY_2015_51,ESTERNAY,51237002,3.579667,48.742,185,51
EUS_2015_66,EUS,66074002,2.446333,42.630167,321,66
EVIAN_SA_2015_74,EVIAN_SA,74119003,6.5825,46.382333,725,74
EVREUXHUEST_2015_27,EVREUXHUEST,27347001,1.221667,49.025,138,27
EYMOUTIERS_2015_87,EYMOUTIERS,87064005,1.701167,45.733833,557,87
FAGNIERESINRAE_2015_51,FAGNIERESINRAE,51242001,4.3085,48.939833,105,51
FAYETLECHATEA_2015_63,FAYETLECHATEA,63157001,3.429167,45.696667,585,63
FECLAZ_SAPC_2015_73,FECLAZ_SAPC,73098003,5.983667,45.647167,1328,73
FELINES_SAPC_2015_43,FELINES_SAPC,43093001,3.742833,45.265833,1014,43
FERRIERELARCON_2015_37,FERRIERELARCON,37107001,0.875,46.9875,116,37
FIGARI_2015_20,FIGARI,20114002,9.103667,41.505167,20,20
FIRMINY_2015_42,FIRMINY,42095001,4.2885,45.378167,515,42
FIXSTGENEYS_2015_43,FIXSTGENEYS,43095001,3.665,45.145833,1102,43
FONDETTES_2015_37,FONDETTES,37109001,0.604167,47.425333,93,37
FONTAINEDUBER_SAPC_2015_63,FONTAINEDUBER_SAPC,63263005,2.991667,45.7995,971,63
FONTAINEGUERIN_2015_49,FONTAINEGUERIN,49138001,-0.167833,47.493167,41,49
FORMIGUERES_2015_66,FORMIGUERES,66082004,2.111333,42.616,1495,66
FREJUS_2015_73,FREJUS,73157004,6.674167,45.193667,1228,73
FREJUS_2015_83,FREJUS,73157004,6.674167,45.193667,1228,73
FRESNAYEAUSAUVAGE_SAPC_2015_61,FRESNAYEAUSAUVAGE_SAPC,61179001,-0.263667,48.722333,229,61
GALLARGUES_LE_MONTUEUX_2015_30,GALLARGUES_LE_MONTUEUX,30123001,4.171667,43.714833,17,30
GELLES_2015_63,GELLES,63163001,2.799333,45.7535,784,63
GENERARGUES_2015_30,GENERARGUES,30129001,3.977667,44.073333,139,30
GENOLHAC_2015_30,GENOLHAC,30130001,3.9615,44.342833,519,30
GENOUILLAC_2015_23,GENOUILLAC,23089001,1.985,46.352333,306,23
GERMAINECIVC_2015_51,GERMAINECIVC,51266002,4.032333,49.123167,172,51
GERVANS_2015_26,GERVANS,26380002,4.828833,45.1125,157,26
GETS_LES_2015_74,GETS_LES,74134002,6.670333,46.158667,1172,74
GIEZ_2015_74,GIEZ,74135001,6.255333,45.762667,478,74
GLANDAGE_SAPC_2015_26,GLANDAGE_SAPC,26142001,5.615167,44.674667,1007,26
GOURDON_2015_46,GOURDON,46127001,1.396667,44.745,260,46
GRAMMOND_SAPC_2015_42,GRAMMOND_SAPC,42102002,4.442833,45.564833,803,42
GRANDCHAMP_SAPC_2015_89,GRANDCHAMP_SAPC,89192001,3.1895,47.7815,180,89
GRAND_BORNAND_2015_74,GRAND_BORNAND,74136003,6.444667,45.970333,1300,74
GREZENBOUERE_2015_53,GREZENBOUERE,53110002,-0.542333,47.891,93,53
GROSPIERRES_SA_2015_07,GROSPIERRES_SA,7101002,4.295833,44.4115,107,7
GRUES_2015_85,GRUES,85104001,-1.334833,46.350167,2,85
GUERANDE_2015_44,GUERANDE,44069002,-2.430167,47.292333,4,44
GUERETST_LAURENT_2015_23,GUERETST_LAURENT,23206002,1.950333,46.1755,365,23
GUERET_BONGEOT_2015_23,GUERET_BONGEOT,23096001,1.879333,46.1805,402,23
GUILLONVILLE_CA28_2015_28,GUILLONVILLE_CA28,28190001,1.666167,48.091333,132,28
GUILLY_2015_36,GUILLY,36085001,1.757,47.072667,135,36
GUISCRIFF_SA_2015_56,GUISCRIFF_SA,56081003,-3.664167,48.05,165,56
HOUCHES_LES_2015_74,HOUCHES_LES,74143003,6.800667,45.8925,1004,74
HOUDELAINCOURT_2015_55,HOUDELAINCOURT,55248001,5.5055,48.563,390,55
HYERES_2015_83,HYERES,83069001,6.147,43.1005,2,83
ILEDEBREHAT_2015_22,ILEDEBREHAT,22016002,-3.005,48.858333,26,22
ILE_DU_LEVANT_2015_83,ILE_DU_LEVANT,83069003,6.469333,43.0325,118,83
ISSANLAS_2015_07,ISSANLAS,7105001,3.981667,44.773167,1215,7
ISSANLAS_SAPC_2015_07,ISSANLAS_SAPC,7105003,3.975333,44.7555,1264,7
ISSOIRE_2015_63,ISSOIRE,63178001,3.262333,45.535333,372,63
ISSOUDUN_2015_36,ISSOUDUN,36088004,1.978,46.9425,138,36
JALOGNY_SAPC_2015_71,JALOGNY_SAPC,71240001,4.651,46.402167,246,71
JEULESBOISAUTO_2015_36,JEULESBOISAUTO,36089003,1.798333,46.661667,185,36
JOUELESTOURS_2015_37,JOUELESTOURS,37122003,0.665333,47.337167,93,37
KERPERT_2015_22,KERPERT,22092001,-3.147667,48.404,281,22
KRUTH_SAPC_2015_68,KRUTH_SAPC,68171002,6.955,47.944167,512,68
LABECEDE_LAURAGAIS_SAPC_2015_11,LABECEDE_LAURAGAIS_SAPC,11181002,2.022167,43.3895,408,11
LALOUVESC_2015_07,LALOUVESC,7128001,4.535,45.117833,1090,7
LANDESGENUSSON_2015_85,LANDESGENUSSON,85119001,-1.1255,46.968333,100,85
LANDOSCHARBON_2015_43,LANDOSCHARBON,43111002,3.843667,44.858,1148,43
LANNION_AERO_2015_22,LANNION_AERO,22113006,-3.468667,48.755333,85,22
LANTOSQUE_SAPC_2015_06,LANTOSQUE_SAPC,6074005,7.307,43.972,550,6
LANVEOC_2015_29,LANVEOC,29120001,-4.439333,48.279333,81,29
LARAGNE_MONTEGLIN_2015_05,LARAGNE_MONTEGLIN,5070003,5.7945,44.319167,565,5
LAVALETRONNIER_2015_53,LAVALETRONNIER,53130008,-0.7465,48.030667,100,53
LA_BASTIDE_DES_JOURDANS_2015_84,LA_BASTIDE_DES_JOURDANS,84009002,5.615,43.787333,381,84
LA_BOISSAUDE_ROCHEJEAN_2015_25,LA_BOISSAUDE_ROCHEJEAN,25494001,6.322833,46.729,1222,25
LA_CHAMPENOISE_2015_36,LA_CHAMPENOISE,36037001,1.77,46.951667,177,36
LA_CHAPELLESAINTOUEN_SAPC_2015_76,LA_CHAPELLESAINTOUEN_SAPC,76171001,1.439833,49.538167,197,76
LA_COURONNE_2015_16,LA_COURONNE,16113001,0.099833,45.627833,58,16
LA_COURTINE_2015_23,LA_COURTINE,23067001,2.263667,45.702667,772,23
LA_DESTROUSSE_SAPC_2015_13,LA_DESTROUSSE_SAPC,13031002,5.601,43.386667,201,13
LA_FAURIE_2015_05,LA_FAURIE,5055001,5.750167,44.566667,825,5
LA_MOTHE_ACHARD_2015_85,LA_MOTHE_ACHARD,85152001,-1.633167,46.620833,58,85
LA_MOTTE_DU_CAIRE_2015_04,LA_MOTTE_DU_CAIRE,4134002,6.0305,44.326667,665,4
LA_PANOUSE_SAPC_2015_48,LA_PANOUSE_SAPC,48108001,3.589333,44.728667,1260,48
LA_PESSE_2015_39,LA_PESSE,39413001,5.843,46.302833,1133,39
LA_ROCHELLEILE_DE_RE_2015_17,LA_ROCHELLEILE_DE_RE,17300009,-1.193167,46.178,20,17
LA_ROCHELLE_2015_17,LA_ROCHELLE,17300004,-1.151667,46.161667,7,17
LA_ROCHE_SUR_YON_2015_85,LA_ROCHE_SUR_YON,85191003,-1.381833,46.705,88,85
LA_VACQUERIE_SAPC_2015_34,LA_VACQUERIE_SAPC,34317001,3.457833,43.792,620,34
LESSE_SAPC_2015_57,LESSE_SAPC,57395001,6.508,48.965833,233,57
LES_ROCHILLESNIVOSE_2015_73,LES_ROCHILLESNIVOSE,73306401,6.469,45.085,2444,73
LES_VANSSA_2015_07,LES_VANSSA,7334004,4.150833,44.4155,140,7
LETOUQUET_2015_62,LETOUQUET,62826001,1.622833,50.5145,5,62
LEVIER_SAPC_2015_25,LEVIER_SAPC,25334001,6.124167,46.949333,713,25
LEVROUX_TREG_2015_36,LEVROUX_TREG,36093002,1.663,46.948667,169,36
LE_BLEYMARD_SAPC_2015_48,LE_BLEYMARD_SAPC,48027003,3.748167,44.4515,1418,48
LE_BOURGET_2015_95,LE_BOURGET,95088001,2.427667,48.967333,49,95
LE_LIORAN_SAPC_2015_15,LE_LIORAN_SAPC,15101004,2.747667,45.080833,1236,15
LE_LUART_2015_72,LE_LUART,72172001,0.583333,48.076667,95,72
LE_LUC_2015_83,LE_LUC,83031001,6.386167,43.383167,80,83
LE_MANS_2015_72,LE_MANS,72181001,0.194167,47.945833,51,72
LE_MONTAT_2015_46,LE_MONTAT,46197002,1.435,44.373667,260,46
LE_MONTDORE_BG_2015_63,LE_MONTDORE_BG,63236002,2.807,45.5745,1050,63
LE_MONTDORE_SAPC_2015_63,LE_MONTDORE_SAPC,63236003,2.8125,45.551833,1220,63
LE_PERRIER_2015_85,LE_PERRIER,85172001,-1.999833,46.8265,2,85
LE_PERTHUS_2015_66,LE_PERTHUS,66137003,2.8595,42.473333,295,66
LE_PLESSIS_GASSOT_2015_95,LE_PLESSIS_GASSOT,95492001,2.406667,49.040333,108,95
LE_TECH_LA_LLAU_SAPC_2015_66,LE_TECH_LA_LLAU_SAPC,66206004,2.5125,42.439833,927,66
LE_TOUR_2015_74,LE_TOUR,74056003,6.946667,46.003333,1460,74
LIGNEVILLE_2015_88,LIGNEVILLE,88271001,5.961167,48.160833,433,88
LIGRE_2015_37,LIGRE,37129002,0.273,47.112333,67,37
LILLELESQUIN_2015_59,LILLELESQUIN,59343001,3.0975,50.57,47,59
LILLERS_2015_62,LILLERS,62516002,2.4965,50.5795,19,62
LIMERAY_2015_37,LIMERAY,37131002,1.011833,47.461167,113,37
LIMOGESBELLEGARDE_2015_87,LIMOGESBELLEGARDE,87085006,1.175,45.861167,402,87
LISIEUX_SAPC_2015_14,LISIEUX_SAPC,14366002,0.227,49.165,62,14
LIVRON_2015_26,LIVRON,26165001,4.830667,44.794167,98,26
LONGUEVILLE_2015_50,LONGUEVILLE,50277001,-1.573,48.862,5,50
LONS_LE_SAUNIER_2015_39,LONS_LE_SAUNIER,39362001,5.517667,46.692833,298,39
LORIENTLANN_BIHOUE_2015_56,LORIENTLANN_BIHOUE,56185001,-3.435667,47.762833,45,56
LORMES_SAPC_2015_58,LORMES_SAPC,58145002,3.858333,47.267167,485,58
LOUARGAT_2015_22,LOUARGAT,22135002,-3.305,48.573333,260,22
LOUBARESSE_2015_07,LOUBARESSE,15108001,3.211667,44.933333,710,15
LOUVIGNEDUDESERT_2015_35,LOUVIGNEDUDESERT,35162003,-1.129833,48.479333,153,35
LOUVILLE_2015_28,LOUVILLE,28215001,1.816833,48.329333,145,28
LUCENDIOIS_2015_26,LUCENDIOIS,26167001,5.451,44.617333,537,26
LUCHON_2015_31,LUCHON,31042012,0.600167,42.8015,618,31
LUXEUIL_2015_70,LUXEUIL,70473001,6.363833,47.787,271,70
LYE_2015_36,LYE,36107001,1.5,47.228333,130,36
LYONBRON_2015_69,LYONBRON,69029001,4.949167,45.721333,202,69
LYONST_EXUPERY_2015_69,LYONST_EXUPERY,69299001,5.077833,45.7265,235,69
L_AIGLE_2015_61,L_AIGLE,61214002,0.662333,48.7585,232,61
L_ILE_D_YEU_2015_85,L_ILE_D_YEU,85113001,-2.330167,46.693667,32,85
MACON_2015_71,MACON,71270004,4.83,46.308333,216,71
MAGNACLAVAL_2015_87,MAGNACLAVAL,87089003,1.187,46.209667,246,87
MAICHE_2015_25,MAICHE,25356003,6.791,47.243,825,25
MANDELIEU_LA_NAPOULE_SAPC_2015_06,MANDELIEU_LA_NAPOULE_SAPC,6079002,6.898667,43.523667,104,6
MARCE_2015_49,MARCE,49188001,-0.317,47.561833,53,49
MARCILLAC_2015_19,MARCILLAC,19125001,2.039833,45.2835,598,19
MARIGNANA_2015_20,MARIGNANA,20154001,8.655333,42.188833,515,20
MARIGNANE_2015_13,MARIGNANE,13054001,5.216,43.437667,9,13
MARSANNE_2015_26,MARSANNE,26176001,4.871667,44.643333,280,26
MARSAZ_2015_26,MARSAZ,26177001,4.938667,45.113167,213,26
MARSILLARGUES_2015_34,MARSILLARGUES,34151003,4.178333,43.665,2,34
MARTIGNEBRIAND_2015_49,MARTIGNEBRIAND,49191001,-0.435833,47.2525,73,49
MATHAUXETAPE_2015_10,MATHAUXETAPE,10228002,4.472333,48.353167,145,10
MATOUR_SAPC_2015_71,MATOUR_SAPC,71289001,4.480333,46.304,415,71
MEAILLES_SAPC_2015_04,MEAILLES_SAPC,4115001,6.6295,44.031167,1090,4
MEGEVE_2015_74,MEGEVE,74173001,6.608167,45.855333,1080,74
MELUN_2015_77,MELUN,77306001,2.6795,48.610333,91,77
MENAT_2015_63,MENAT,63223001,2.91,46.105167,410,63
MENDE_2015_48,MENDE,48095003,3.498333,44.518333,709,48
MERDRIGNAC_2015_22,MERDRIGNAC,22147005,-2.408333,48.191667,135,22
MEYTHET_2015_74,MEYTHET,74182001,6.094,45.928167,455,74
MILLAU_2015_12,MILLAU,12145001,3.0195,44.1185,712,12
MIMET_2015_13,MIMET,13062002,5.499667,43.4185,416,13
MIRABEL_SA_2015_07,MIRABEL_SA,7159001,4.497333,44.5815,275,7
MONTAUT_2015_09,MONTAUT,40191001,-0.656667,43.743333,120,40
MONTBELLAYINRAE_2015_49,MONTBELLAYINRAE,49215002,-0.1415,47.13,58,49
MONTBEUGNY_2015_03,MONTBEUGNY,3180001,3.423167,46.536333,275,3
MONTCLUS_2015_30,MONTCLUS,30175001,4.430333,44.268,120,30
MONTDARDIER_2015_30,MONTDARDIER,30176002,3.58,43.947,640,30
MONTELIMAR_2015_26,MONTELIMAR,26198001,4.733,44.581167,73,26
MONTFORTSURARGENS_SAPC_2015_83,MONTFORTSURARGENS_SAPC,83083001,6.127,43.469667,141,83
MONTGIVRAY_2015_36,MONTGIVRAY,36127002,1.974,46.610167,204,36
MONTJOUX_2015_26,MONTJOUX,26202001,5.097167,44.5095,491,26
MONTLUCON_2015_03,MONTLUCON,3185001,2.606667,46.32,207,3
MONTOURTIER_SAPC_2015_53,MONTOURTIER_SAPC,53159002,-0.538667,48.209833,107,53
MONTSEGURSLAU_2015_26,MONTSEGURSLAU,26211001,4.860833,44.3615,146,26
MONT_AIGOUAL_2015_30,MONT_AIGOUAL,30339001,3.5815,44.121333,1567,30
MORTEAU_SA_2015_25,MORTEAU_SA,25411005,6.612167,47.062333,760,25
MOUCHAMPS_SAPC_2015_85,MOUCHAMPS_SAPC,85153002,-1.053333,46.768333,82,85
MOUTHOUMET_2015_11,MOUTHOUMET,11260001,2.525,42.96,558,11
MOUZAY_2015_55,MOUZAY,55364001,5.209167,49.460167,166,55
MURS_2015_36,MURS,36136001,1.168333,46.925,148,36
NANCYESSEY_2015_54,NANCYESSEY,54526001,6.2215,48.687833,212,54
NANCYOCHEY_2015_54,NANCYOCHEY,54405001,5.959833,48.581,336,54
NANTESBOUGUENAIS_2015_44,NANTESBOUGUENAIS,44020001,-1.608833,47.15,26,44
NANTIAT_2015_87,NANTIAT,87103002,1.180667,46.004667,335,87
NASBINALS_2015_48,NASBINALS,48104002,2.9955,44.642,1284,48
NAVES_2015_19,NAVES,19146001,1.772667,45.3215,450,19
NEULISE_2015_42,NEULISE,42156002,4.178667,45.9065,557,42
NEUVIC_2015_19,NEUVIC,19148001,2.2815,45.379167,615,19
NICERIMIEZ_2015_06,NICERIMIEZ,6088007,7.279167,43.738667,238,6
NICE_2015_06,NICE,6088013,7.270667,43.6965,16,6
NIMESCOURBESSAC_2015_30,NIMESCOURBESSAC,30189001,4.406333,43.856833,59,30
NIORT_2015_79,NIORT,79191005,-0.400167,46.315833,57,79
NOIRMOUTIER_EN_2015_85,NOIRMOUTIER_EN,85163001,-2.257167,47.004667,3,85
NONSARD_2015_55,NONSARD,55386002,5.763833,48.934167,230,55
NORTSURERDRE_2015_44,NORTSURERDRE,44110002,-1.513667,47.425167,13,44
NYONS_P182_2015_26,NYONS_P182,26220010,5.1155,44.359167,316,26
OCTEVILLE_2015_76,OCTEVILLE,76481001,0.091667,49.533,90,76
OCTON_2015_34,OCTON,34186001,3.306167,43.655,184,34
OPPEDE_CRETE_DU_PETIT_LUBERON_2015_84,OPPEDE_CRETE_DU_PETIT_LUBERON,84086001,5.146,43.811,672,84
ORANGE_2015_84,ORANGE,84087001,4.861,44.1445,57,84
ORGERUS_2015_78,ORGERUS,78465001,1.693833,48.859167,102,78
ORLEANS_2015_45,ORLEANS,45055001,1.778167,47.990667,123,45
ORLY_2015_91,ORLY,91027002,2.397,48.718,86,91
ORSENNES_2015_36,ORSENNES,36146001,1.668333,46.465,315,36
OUZOUERARVALIS_2015_41,OUZOUERARVALIS,41173002,1.522167,47.904,129,41
PAGNYLECHATEAU_2015_21,PAGNYLECHATEAU,21131001,5.190667,47.043167,182,21
PALLUAU_2015_85,PALLUAU,85169002,-1.597667,46.808,51,85
PARISMONTSOURIS_2015_75,PARISMONTSOURIS,75114001,2.337833,48.821667,75,75
PEGOMAS_2015_06,PEGOMAS,6090002,6.936667,43.602667,109,6
PEILLE_2015_06,PEILLE,6091004,7.4,43.8,672,6
PEIRA_CAVA_2015_06,PEIRA_CAVA,6077006,7.363333,43.929167,1443,6
PEONE_2015_06,PEONE,6094002,6.930833,44.099667,1784,6
PERPIGNAN_2015_66,PERPIGNAN,66136004,2.885,42.701667,48,66
PEYRELEVADE_2015_19,PEYRELEVADE,19164001,2.058667,45.701,827,19
PEYROLLES_EN_PROVENCE_2015_13,PEYROLLES_EN_PROVENCE,13074003,5.607,43.656667,217,13
PEZENASTOURBES_2015_34,PEZENASTOURBES,34311001,3.400333,43.437667,40,34
PIERREBUFFIERE_2015_87,PIERREBUFFIERE,87119002,1.358333,45.696667,253,87
PIERREFITTE_CIN_SAPC_2015_14,PIERREFITTE_CIN_SAPC,14501002,-0.385833,48.891,185,14
PIERROTONINRAE_2015_33,PIERROTONINRAE,33122003,-0.776667,44.738333,60,33
PILACANALE_2015_20,PILACANALE,20232002,8.903667,41.8145,407,20
PIN_AU_HARASINRAE_2015_61,PIN_AU_HARASINRAE,61328001,0.180833,48.725,202,61
PIONSAT_2015_63,PIONSAT,63281001,2.687833,46.104833,524,63
PLAN_DAUPS_STE_BAUME_SAPC_2015_83,PLAN_DAUPS_STE_BAUME_SAPC,83093005,5.728333,43.342667,605,83
PLOUGUENAST_2015_22,PLOUGUENAST,22219001,-2.708333,48.28,150,22
PLOUMANACH_2015_22,PLOUMANACH,22168001,-3.473167,48.825833,55,22
PLOVAN_2015_29,PLOVAN,29214001,-4.3775,47.915833,10,29
PONS_2015_17,PONS,4195001,6.61,44.386667,1132,4
PONTARION_SAPC_2015_23,PONTARION_SAPC,23155001,1.852833,45.995667,455,23
PONTIVY_2015_56,PONTIVY,56178002,-2.848333,48.083333,59,56
PONTOISE_AERO_2015_95,PONTOISE_AERO,95078001,2.0285,49.090333,87,95
PONTORSON_2015_50,PONTORSON,50410002,-1.503333,48.576667,10,50
PORQUEROLLES_2015_83,PORQUEROLLES,83069002,6.226833,43.0,135,83
POUANCE_SAPC_2015_49,POUANCE_SAPC,49248003,-1.188333,47.74,96,49
POUZAUGES_SA_2015_85,POUZAUGES_SA,85182004,-0.830833,46.766,153,85
PRADINAS_SAPC_2015_12,PRADINAS_SAPC,12189001,2.255833,44.242167,564,12
PUYCELSI_2015_81,PUYCELSI,81217002,1.680667,43.981,260,81
PUYSTMARTIN_2015_26,PUYSTMARTIN,26258001,4.976833,44.618167,211,26
QUENZA_2015_20,QUENZA,20254006,9.142833,41.777667,932,20
QUIMPER_2015_29,QUIMPER,29232002,-4.108333,47.995,60,29
QUINTENIC_2015_22,QUINTENIC,22261002,-2.42,48.519167,71,22
REIGNAC_2015_37,REIGNAC,37192001,0.899,47.219333,90,37
REMUZAT_2015_26,REMUZAT,26264002,5.367,44.431667,475,26
RENNESST_JACQUES_2015_35,RENNESST_JACQUES,35281001,-1.734,48.068833,36,35
RENNO_2015_20,RENNO,20258001,8.807167,42.190167,755,20
RESTEFONDNIVOSE_2015_04,RESTEFONDNIVOSE,4096401,6.8,44.34,2550,4
REUILLY_2015_36,REUILLY,36171002,2.026667,47.076667,155,36
RIEC_SUR_BELON_2015_29,RIEC_SUR_BELON,29236001,-3.709167,47.879,77,29
RIMPLAS_SAPC_2015_06,RIMPLAS_SAPC,6102001,7.1335,44.067167,1130,6
RISTOLAS_2015_05,RISTOLAS,5120002,6.9845,44.765667,1670,5
ROCHEFORTSAMSON_SAPC_2015_26,ROCHEFORTSAMSON_SAPC,26273002,5.165167,44.990667,368,26
ROISSY_2015_95,ROISSY,95527001,2.534333,49.015167,108,95
ROLLAINVILLE_2015_88,ROLLAINVILLE,88393003,5.716667,48.359167,372,88
ROMORANTIN_2015_41,ROMORANTIN,41194001,1.746667,47.36,104,41
RONSENAC_2015_16,RONSENAC,16283002,0.253333,45.478333,90,16
ROSTRENEN_2015_22,ROSTRENEN,22266001,-3.295333,48.226667,236,22
ROUENBOOS_2015_76,ROUENBOOS,76116001,1.178333,49.3895,156,76
ROUFFACH_SA_2015_68,ROUFFACH_SA,68287003,7.286833,47.965333,285,68
ROUJANINRAE_2015_34,ROUJANINRAE,34237001,3.321333,43.491667,73,34
ROUSSES_SAPC_2015_48,ROUSSES_SAPC,48130002,3.5845,44.206833,812,48
ROVILLE_2015_88,ROVILLE,88402002,6.608167,48.383,278,88
SAINTE_GEMME_LA_PLAINE_SAPC_2015_85,SAINTE_GEMME_LA_PLAINE_SAPC,85216001,-1.121333,46.440167,3,85
SAINTJOACHIM_SAE_2015_44,SAINTJOACHIM_SAE,44168001,-2.1925,47.3815,3,44
SAINTLOUP_SAPC_2015_23,SAINTLOUP_SAPC,23209001,2.2645,46.140667,440,23
SAINT_MARTIN_VESUBIE_SAPC_2015_06,SAINT_MARTIN_VESUBIE_SAPC,6127006,7.255,44.065667,899,6
SAINT_PRIVE_2015_89,SAINT_PRIVE,89365001,2.985333,47.658,198,89
SALINDRES_2015_30,SALINDRES,30305001,4.1525,44.1745,191,30
SALLANCHES_2015_74,SALLANCHES,74256001,6.640333,45.931667,542,74
SALON_DE_PROVENCE_2015_13,SALON_DE_PROVENCE,13103001,5.108,43.612833,58,13
SAMOENS_2015_74,SAMOENS,74258002,6.726667,46.086667,785,74
SARI_DORCINO_2015_20,SARI_DORCINO,20270001,8.802333,42.0785,407,20
SARZEAU_SA_2015_56,SARZEAU_SA,56240003,-2.796,47.510667,35,56
SAULCESCHAMPENOISES_2015_08,SAULCESCHAMPENOISES,8401001,4.4925,49.423833,147,8
SAUNAY_2015_37,SAUNAY,37240001,0.931333,47.590333,109,37
SAUXILLANGES_2015_63,SAUXILLANGES,63415001,3.368833,45.551333,460,63
SAVIGNY_CLAIRIS_2015_89,SAVIGNY_CLAIRIS,89380001,3.104,48.0865,184,89
SAVIGNY_LES_BEA_2015_21,SAVIGNY_LES_BEA,21590001,4.836667,47.056333,246,21
SAVIGNY_VERON_2015_37,SAVIGNY_VERON,37242002,0.149333,47.227,33,37
SEDERON_2015_26,SEDERON,26340001,5.538833,44.202333,804,26
SEGRE_SAPC_2015_49,SEGRE_SAPC,49331003,-0.873333,47.679167,25,49
SENS_2015_89,SENS,89387002,3.288667,48.167667,70,89
SEPTSARGES_2015_55,SEPTSARGES,55484001,5.155,49.276333,293,55
SERVOZ_2015_74,SERVOZ,74266001,6.767333,45.931167,815,74
SOCOA_2015_64,SOCOA,64189001,-1.6865,43.3945,21,64
SONZAY_2015_37,SONZAY,37249001,0.470667,47.5185,117,37
SOSPEL_2015_06,SOSPEL,6136005,7.433667,43.862833,843,6
SOURS_SAPC_2015_28,SOURS_SAPC,28380003,1.555167,48.406333,147,28
STAGREVE_2015_07,STAGREVE,7204005,4.401,45.012167,1072,7
STANTHEME_2015_63,STANTHEME,63319002,3.886167,45.575833,1263,63
STAUBAN_2015_26,STAUBAN,26292002,5.409833,44.294833,625,26
STBONNETLECHATEAU_SAPC_2015_42,STBONNETLECHATEAU_SAPC,42204002,4.072,45.436167,822,42
STCHRISTOPHEL_SAPC_2015_26,STCHRISTOPHEL_SAPC,26298001,5.071833,45.229333,452,26
STCHRISTOPHESURNAIS_2015_37,STCHRISTOPHESURNAIS,37213003,0.464333,47.6155,107,37
STEPAIN_2015_37,STEPAIN,37216002,0.604833,47.157167,112,37
STETIENNE_LUGDARES_2015_07,STETIENNE_LUGDARES,7232001,3.9485,44.651333,1022,7
STE_LEOCADIE_2015_66,STE_LEOCADIE,66181001,2.013333,42.445,1320,66
STE_MARIE_CUINES_2015_73,STE_MARIE_CUINES,73255003,6.307167,45.3435,460,73
STE_MARIE_DU_MO_2015_50,STE_MARIE_DU_MO,50509002,-1.168333,49.4045,5,50
STFRAIMBAULT_2015_61,STFRAIMBAULT,61387001,-0.7025,48.504333,158,61
STFULGENT_SAPC_2015_85,STFULGENT_SAPC,85215002,-1.184167,46.848,62,85
STGERMAINL_AR_2015_69,STGERMAINL_AR,69208001,4.6045,45.869333,370,69
STGERMAINL_HE_2015_63,STGERMAINL_HE,63353003,3.532667,45.461,1070,63
STJEAND_ARDIE_2015_69,STJEAND_ARDIE,69211001,4.702667,46.117667,240,69
STJEANENROYA_2015_26,STJEANENROYA,26307001,5.2925,45.009167,308,26
STJUSTENCHEV_2015_42,STJUSTENCHEV,42248002,3.844167,45.9085,612,42
STMARCELLESVINRAE_2015_26,STMARCELLESVINRAE,26313001,4.931333,44.980167,190,26
STMARCEL_ANNONAY_2015_07,STMARCEL_ANNONAY,7265001,4.642,45.296,494,7
STMAURICELESCOUCHES_SAPC_2015_71,STMAURICELESCOUCHES_SAPC,71464001,4.594833,46.881833,300,71
STMAUR_2015_94,STMAUR,94068001,2.492333,48.808667,48,94
STMEMELETENU_2015_44,STMEMELETENU,44181001,-1.7825,47.005667,4,44
STNICOLASDEBOURGUEIL_2015_37,STNICOLASDEBOURGUEIL,37228001,0.107833,47.29,44,37
STNICOLAS_2015_03,STNICOLAS,82169001,1.026667,44.055,82,82
STPIERRELES_EGAUX_2015_38,STPIERRELES_EGAUX,38442008,5.803833,45.317333,950,38
STPIERRESTJEAN_2015_07,STPIERRESTJEAN,7284001,4.108333,44.456667,650,7
STPIERREVILLE_2015_07,STPIERREVILLE,7286002,4.485,44.814333,560,7
STPRIVAT_2015_19,STPRIVAT,19237001,2.096,45.139,585,19
STRASBOURGENTZHEIM_2015_67,STRASBOURGENTZHEIM,67124001,7.640333,48.5495,150,67
ST_ANDRE_2015_89,ST_ANDRE,58229001,3.845,47.398333,275,58
ST_ANDRE_DE_SANGONIS_2015_34,ST_ANDRE_DE_SANGONIS,34239002,3.507833,43.664167,86,34
ST_BRIEUC_2015_22,ST_BRIEUC,22372001,-2.852,48.534667,135,22
ST_CANNAT_2015_13,ST_CANNAT,13091001,5.251333,43.591333,198,13
ST_CHRISTOL_2015_84,ST_CHRISTOL,84107002,5.492833,44.040667,836,84
ST_DIZIERLEVEQUE_SAPC_2015_90,ST_DIZIERLEVEQUE_SAPC,90090001,6.958833,47.467333,553,90
ST_ETIENNEBOUTHEON_2015_42,ST_ETIENNEBOUTHEON,42005001,4.293833,45.545667,395,42
ST_ETIENNE_DE_TINEE_SAPC_2015_06,ST_ETIENNE_DE_TINEE_SAPC,6120004,6.921167,44.257667,1150,6
ST_GIRONS_2015_09,ST_GIRONS,9289001,1.106833,43.005333,414,9
ST_JEANSTNICOLAS_2015_05,ST_JEANSTNICOLAS,5145002,6.209833,44.670833,1210,5
ST_JULIEN_DE_PEYROLAS_2015_30,ST_JULIEN_DE_PEYROLAS,30273001,4.579333,44.277,71,30
ST_JULIEN_SA_2015_39,ST_JULIEN_SA,39485002,5.448,46.385167,361,39
ST_LEONARD_NOBL_2015_87,ST_LEONARD_NOBL,87161002,1.4965,45.828667,346,87
ST_MARTIAL_2015_30,ST_MARTIAL,30283001,3.7345,44.035833,483,30
ST_MARTIAL_VIVEYROLS_2015_24,ST_MARTIAL_VIVEYROLS,24452001,0.319333,45.357833,166,24
ST_MAURICE_2015_54,ST_MAURICE,88426001,6.823333,47.856667,660,88
ST_MAXIMIN_LA_STE_BAUME_2015_83,ST_MAXIMIN_LA_STE_BAUME,83116022,5.847833,43.4775,294,83
ST_M_HINX_STNAINRAE_2015_40,ST_M_HINX_STNAINRAE,40272002,-1.299333,43.570833,37,40
ST_NAZAIREMONTOIR_2015_44,ST_NAZAIREMONTOIR,44103001,-2.1545,47.313833,3,44
ST_OUENLESPAREY_SAPC_2015_88,ST_OUENLESPAREY_SAPC,88430001,5.7745,48.188833,329,88
ST_PAUL_DE_FENOUILLET_2015_66,ST_PAUL_DE_FENOUILLET,66187006,2.485333,42.8205,300,66
ST_PONCY_SAPC_2015_15,ST_PONCY_SAPC,15207002,3.174167,45.178333,805,15
ST_QUENTIN_2015_02,ST_QUENTIN,2320001,3.206,49.818333,98,2
ST_SIGISMOND_2015_74,ST_SIGISMOND,74252001,6.612167,46.076333,1020,74
ST_SULPICE_DE_POMMIERS_2015_33,ST_SULPICE_DE_POMMIERS,33482001,-0.12,44.683833,82,33
ST_SYLVAIN_SAPC_2015_14,ST_SYLVAIN_SAPC,14659001,-0.234333,49.06,62,14
ST_THIERRYCIVC_2015_51,ST_THIERRYCIVC,51518001,3.960667,49.300833,135,51
ST_WITZ_2015_95,ST_WITZ,95580001,2.550667,49.085667,141,95
ST_YRIEIX_LA_PE_2015_87,ST_YRIEIX_LA_PE,87187003,1.243833,45.513667,404,87
SUBLAINES_2015_37,SUBLAINES,37253001,0.993167,47.265,111,37
SURGERES_2015_17,SURGERES,17434001,-0.705,46.123333,75,17
TALLARD_2015_05,TALLARD,5170001,6.033333,44.452167,593,5
TANUS_2015_81,TANUS,81292001,2.279667,44.107167,537,81
TARASCON_2015_13,TARASCON,13108002,4.666667,43.805,102,13
TAULIGNAN_2015_26,TAULIGNAN,26348001,4.989833,44.430167,257,26
TAUVES_2015_63,TAUVES,63426001,2.595667,45.544667,851,63
TENDE_SAPC_2015_06,TENDE_SAPC,6163007,7.586,44.043167,636,6
TENDU_SAPC_2015_36,TENDU_SAPC,36219001,1.588333,46.6615,155,36
TICHEVILLE_SAPC_2015_61,TICHEVILLE_SAPC,61485002,0.245,48.913,225,61
TILCHATEL_SAPC_2015_21,TILCHATEL_SAPC,21638002,5.2075,47.544833,283,21
TORCY_2015_71,TORCY,71540001,4.466667,46.766667,322,71
TORREILLES_2015_66,TORREILLES,66212001,2.978333,42.755,7,66
TOULON_2015_83,TOULON,83137001,5.900667,43.115833,3,83
TOULOUSEBLAGNAC_2015_31,TOULOUSEBLAGNAC,31069001,1.378833,43.621,151,31
TOULOUSEFRANCAZAL_2015_31,TOULOUSEFRANCAZAL,31157001,1.372667,43.540333,164,31
TOURS_2015_37,TOURS,37179001,0.727333,47.4445,108,37
TOUSSUS_LE_NOBLE_2015_78,TOUSSUS_LE_NOBLE,78620001,2.1135,48.750667,154,78
TRAPPES_2015_78,TRAPPES,78621001,2.009833,48.774333,167,78
TRESSON_SAPC_2015_72,TRESSON_SAPC,72361001,0.5595,47.885333,154,72
TRETS_2015_13,TRETS,13110003,5.698667,43.445333,264,13
TRIAUCOURT_SAPC_2015_55,TRIAUCOURT_SAPC,55517002,5.065167,48.983167,185,55
TROYESBARBEREY_2015_10,TROYESBARBEREY,10030001,4.02,48.324667,112,10
TULLE_2015_19,TULLE,19272001,1.740333,45.2425,235,19
USINENS_SA_2015_74,USINENS_SA,74285002,5.8445,46.013,452,74
USSELLES_PLAINES_2015_19,USSELLES_PLAINES,19275004,2.281667,45.527667,670,19
UZERCHE_2015_19,UZERCHE,19276006,1.568167,45.396333,422,19
VACHERESSE_2015_74,VACHERESSE,74286001,6.669833,46.316333,790,74
VALBONNESOPHIA_2015_06,VALBONNESOPHIA,6152002,7.0285,43.623167,238,6
VALDROME_2015_26,VALDROME,26361001,5.576667,44.505333,786,26
VALLON_SA_2015_07,VALLON_SA,7330004,4.403667,44.391833,120,7
VALLORCINE_PLANDROIT_2015_74,VALLORCINE_PLANDROIT,74290002,6.919167,46.0205,1326,74
VALOGNES_2015_50,VALOGNES,50615001,-1.506667,49.517667,61,50
VALSLESBAINS_2015_07,VALSLESBAINS,7331001,4.360667,44.6695,283,7
VANNESMEUCON_2015_56,VANNESMEUCON,56137001,-2.727,47.722,132,56
VANNESSENE_2015_56,VANNESSENE,56243001,-2.714167,47.6045,3,56
VARENNESSTSA_2015_71,VARENNESSTSA,71558001,5.255333,46.529333,207,71
VATRYAERO_2015_51,VATRYAERO,51595002,4.164667,48.777167,179,51
VAUVENARGUES_2015_13,VAUVENARGUES,13111002,5.68,43.551,565,13
VENDAYSMONTALIVE_2015_33,VENDAYSMONTALIVE,33540001,-1.119167,45.378667,6,33
VERTUSCIVC_2015_51,VERTUSCIVC,51612003,3.995333,48.9025,150,51
VERT_TOULONCIVC_2015_51,VERT_TOULONCIVC,51611001,3.906,48.84,155,51
VIABON_2015_28,VIABON,28406001,1.679833,48.196167,138,28
VICHERES_2015_28,VICHERES,28407001,0.910167,48.257833,235,28
VICHYCHARMEIL_2015_03,VICHYCHARMEIL,3060001,3.398667,46.166667,249,3
VIC_LE_FESQ_2015_30,VIC_LE_FESQ,30349001,4.072167,43.870833,45,30
VILLARDEBELLE_SAPC_2015_11,VILLARDEBELLE_SAPC,11412001,2.4005,43.014833,593,11
VILLENEUVELESMAGINRAE_2015_34,VILLENEUVELESMAGINRAE,34337001,3.853833,43.538167,20,34
VILLIERSLEBACLE2_2015_91,VILLIERSLEBACLE2,91679002,2.116167,48.735333,161,91
VINON_SUR_VERDON_2015_83,VINON_SUR_VERDON,83150002,5.782667,43.734,271,83
VINSOBRES_2015_26,VINSOBRES,26377002,5.058333,44.283333,210,26
VIRE_HIPPODROME_2015_14,VIRE_HIPPODROME,14762004,-0.899,48.850833,100,14
VITRE_SAE_2015_35,VITRE_SAE,35360004,-1.212167,48.118833,105,35
VITRYLECROISECIVC_2015_10,VITRYLECROISECIVC,10438001,4.554167,48.144333,237,10
