nom_fichier,station,id,longitude,latitude,altitude,departement
ABBEVILLE_2019_80,ABBEVILLE,80001005.0,1.835,50.106667,68.0,80.0
ACHERES_2019_78,ACHERES,78005002.0,2.126,48.983167,31.0,78.0
ADAST_2019_65,ADAST,65001001.0,-0.072167,42.972833,446.0,65.0
AEROPORT_METZNANCYLORRAINE_2019_57,AEROPORT_METZNANCYLORRAINE,57251001.0,6.243167,48.979333,260.0,57.0
AGENLA_GARENNE_2019_47,AGENLA_GARENNE,47091001.0,0.594667,44.172167,58.0,47.0
AILLEVILLE_SAPC_2019_10,AILLEVILLE_SAPC,10002001.0,4.685667,48.254167,195.0,10.0
AIX_EN_PROVENCE_2019_13,AIX_EN_PROVENCE,13001009.0,5.4245,43.5295,173.0,13.0
AJACCIOMILELLI_SAPC_2019_20,AJACCIOMILELLI_SAPC,20004014.0,8.720833,41.9385,86.0,20.0
AJACCIO_2019_20,AJACCIO,20004002.0,8.792667,41.918,5.0,20.0
ALBERTVILLE_JO_2019_73,ALBERTVILLE_JO,73011004.0,6.371833,45.662333,332.0,73.0
ALENCON_2019_61,ALENCON,61001001.0,0.110167,48.4455,143.0,61.0
ALISTRO_2019_20,ALISTRO,20303002.0,9.5415,42.259667,65.0,20.0
ALLOS_SAPC_2019_04,ALLOS_SAPC,4006005.0,6.625333,44.2425,1400.0,4.0
ALTIER_2019_48,ALTIER,48004001.0,3.852,44.494,900.0,48.0
ALZON_2019_30,ALZON,30009001.0,3.444,43.979,611.0,30.0
AMBERIEU_2019_01,AMBERIEU,1089001.0,5.329333,45.9765,250.0,1.0
AMBOISE_LYCEE_2019_37,AMBOISE_LYCEE,37003004.0,0.977,47.394167,116.0,37.0
AMIENSGLISY_2019_80,AMIENSGLISY,80379002.0,2.3825,49.872,60.0,80.0
ANGRIE_2019_49,ANGRIE,49008001.0,-0.970333,47.561667,65.0,49.0
ANTIBES_SAPC_2019_06,ANTIBES_SAPC,6004009.0,7.111167,43.599167,32.0,6.0
APTVITON_2019_84,APTVITON,84003002.0,5.414,43.881,242.0,84.0
ARBOIS_SAPC_2019_39,ARBOIS_SAPC,39013004.0,5.740167,46.896,313.0,39.0
ARBRISSEL_2019_35,ARBRISSEL,35005001.0,-1.297333,47.927333,75.0,35.0
ARCETSENANS_2019_25,ARCETSENANS,25021001.0,5.782,47.0315,235.0,25.0
ARCHAMPS_2019_74,ARCHAMPS,74016001.0,6.140167,46.131833,560.0,74.0
ARGENTAT_2019_19,ARGENTAT,19010001.0,1.9375,45.101333,190.0,19.0
ARLES_2019_13,ARLES,13004003.0,4.693833,43.51,1.0,13.0
ARNAY_SAPC_2019_21,ARNAY_SAPC,21567001.0,4.498667,47.124833,396.0,21.0
ARVIEUX_2019_05,ARVIEUX,5007003.0,6.728,44.796,1825.0,5.0
ARZAL_2019_56,ARZAL,56004001.0,-2.382667,47.512667,26.0,56.0
AUBREVILLE_SAPC_2019_55,AUBREVILLE_SAPC,55014001.0,5.0935,49.133833,202.0,55.0
AUBUSSON_SAPC_2019_23,AUBUSSON_SAPC,23008004.0,2.187833,45.957833,486.0,23.0
AUMONT_AUBRAC_2019_48,AUMONT_AUBRAC,48009001.0,3.279833,44.727167,1018.0,48.0
AUPS_2019_83,AUPS,83007004.0,6.1875,43.641,497.0,83.0
AUSSOISCLIM_2019_73,AUSSOISCLIM,73023001.0,6.744333,45.229833,1467.0,73.0
AUTUN_2019_71,AUTUN,71014003.0,4.301667,46.951667,360.0,71.0
AUXERREPERRIGNY_2019_89,AUXERREPERRIGNY,89295001.0,3.549667,47.824667,152.0,89.0
AUZANCES_SAPC_2019_23,AUZANCES_SAPC,23013001.0,2.489333,46.0215,564.0,23.0
AUZEVILLETOLOSANEINRAE_2019_31,AUZEVILLETOLOSANEINRAE,31035001.0,1.503667,43.528833,150.0,31.0
AVORD_2019_18,AVORD,18092001.0,2.642167,47.052167,175.0,18.0
AYZE_2019_74,AYZE,74024001.0,6.431333,46.0795,449.0,74.0
BADONVILLER_2019_54,BADONVILLER,54040001.0,6.896167,48.498,336.0,54.0
BALEMULHOUSE_2019_68,BALEMULHOUSE,68297001.0,7.51,47.614333,263.0,68.0
BALLON_DE_SERVANCE_2019_70,BALLON_DE_SERVANCE,70283006.0,6.791333,47.830833,1213.0,70.0
BARCELONNETTE_2019_04,BARCELONNETTE,4019005.0,6.65,44.388333,1135.0,4.0
BASSURELS_2019_48,BASSURELS,48020003.0,3.630667,44.1965,1042.0,48.0
BASTIA_SAPC_2019_20,BASTIA_SAPC,20033015.0,9.444833,42.704333,26.0,20.0
BAUDEMONT_SAPC_2019_71,BAUDEMONT_SAPC,71022001.0,4.296667,46.2765,337.0,71.0
BAZUSAURE_2019_65,BAZUSAURE,65075001.0,0.3485,42.857833,767.0,65.0
BEAUCOUZE_2019_49,BEAUCOUZE,49020001.0,-0.614333,47.479,50.0,49.0
BEAUFORTSGERV_2019_26,BEAUFORTSGERV,26035001.0,5.139,44.778,379.0,26.0
BEAULIEUSLAY_2019_49,BEAULIEUSLAY,49022001.0,-0.598333,47.308,78.0,49.0
BEAUMONT_2019_74,BEAUMONT,82013001.0,0.99,43.886667,133.0,82.0
BEAUMONT_SAPC_2019_37,BEAUMONT_SAPC,37023002.0,1.211667,47.177167,126.0,37.0
BEDARIEUX_2019_34,BEDARIEUX,34028001.0,3.156667,43.615,224.0,34.0
BEGROLLES_2019_49,BEGROLLES,49027001.0,-0.937667,47.152167,100.0,49.0
BEHONNE_SAPC_2019_55,BEHONNE_SAPC,55041001.0,5.1885,48.795667,301.0,55.0
BELIN_BELIET_2019_33,BELIN_BELIET,33042005.0,-0.882,44.448,45.0,33.0
BELLEGARDEEND_2019_26,BELLEGARDEEND,26047001.0,5.454333,44.535167,1017.0,26.0
BELLEGARDE_2019_01,BELLEGARDE,23020001.0,2.3,45.978333,588.0,23.0
BELLEISLEENTERRE_2019_22,BELLEISLEENTERRE,22005003.0,-3.3875,48.55,158.0,22.0
BELLEME_SAPC_2019_61,BELLEME_SAPC,61426001.0,0.55,48.373833,168.0,61.0
BELLEY_2019_01,BELLEY,1034004.0,5.688,45.769333,330.0,1.0
BELVES_2019_24,BELVES,24035001.0,1.008333,44.773333,90.0,24.0
BENASSAY_SAPC_2019_86,BENASSAY_SAPC,86021002.0,0.054833,46.568333,150.0,86.0
BENEVENT_SAPC_2019_23,BENEVENT_SAPC,23021001.0,1.6285,46.121,460.0,23.0
BERGHEIMINRAE_2019_68,BERGHEIMINRAE,68028001.0,7.345833,48.216333,309.0,68.0
BERG_2019_67,BERG,67029001.0,7.151667,48.884333,350.0,67.0
BERNAY_2019_27,BERNAY,72033002.0,-0.058333,48.071667,77.0,72.0
BERNIERES_2019_14,BERNIERES,14066001.0,-0.430667,49.334,2.0,14.0
BESANCON_2019_25,BESANCON,25056001.0,5.988833,47.249,307.0,25.0
BESSEY_2019_21,BESSEY,21065001.0,4.743167,47.086,593.0,21.0
BEZIERSVIAS_2019_34,BEZIERSVIAS,34209002.0,3.352667,43.322,15.0,34.0
BIDACHE_2019_64,BIDACHE,64123001.0,-1.142167,43.481167,45.0,64.0
BIGNAN_2019_56,BIGNAN,56017002.0,-2.766667,47.883333,160.0,56.0
BLECOURT_2019_52,BLECOURT,52055001.0,5.067,48.384167,348.0,52.0
BLOIS_2019_41,BLOIS,41281001.0,1.212333,47.6785,119.0,41.0
BLOYE_2019_74,BLOYE,74035001.0,5.944667,45.821667,375.0,74.0
BOCOGNANOGARE_2019_20,BOCOGNANOGARE,20040003.0,9.052333,42.080167,671.0,20.0
BOCOGNANO_2019_20,BOCOGNANO,20040004.0,9.103333,42.104167,1019.0,20.0
BOENSURLIGNON_SAPC_2019_42,BOENSURLIGNON_SAPC,42019005.0,4.0015,45.756167,513.0,42.0
BONNAT_2019_23,BONNAT,23025001.0,1.916333,46.315333,382.0,23.0
BONNEVILLE_2019_74,BONNEVILLE,74042001.0,6.408333,46.078333,447.0,74.0
BONZEE_SAPC_2019_55,BONZEE_SAPC,55060002.0,5.601167,49.092833,235.0,55.0
BORDEAUXMERIGNAC_2019_33,BORDEAUXMERIGNAC,33281001.0,-0.691333,44.830667,47.0,33.0
BORDEAUXPAULIN_2019_33,BORDEAUXPAULIN,33063001.0,-0.588667,44.849667,10.0,33.0
BORMES_LES_MIMOSAS_2019_83,BORMES_LES_MIMOSAS,83019002.0,6.379333,43.195167,88.0,83.0
BOURBON_SAPC_2019_03,BOURBON_SAPC,3036002.0,3.0495,46.58,270.0,3.0
BOURDEAUX_2019_26,BOURDEAUX,26056001.0,5.142833,44.580167,432.0,26.0
BOURDONS_SAPC_2019_52,BOURDONS_SAPC,52061002.0,5.349667,48.162333,304.0,52.0
BOURGANEUF_2019_23,BOURGANEUF,23030004.0,1.725833,45.942333,513.0,23.0
BOURGARGENTAL_2019_42,BOURGARGENTAL,42023004.0,4.5735,45.298667,514.0,42.0
BOURGES_2019_18,BOURGES,18033001.0,2.359833,47.059167,161.0,18.0
BOURGET_EN_HUILE_SAPC_2019_73,BOURGET_EN_HUILE_SAPC,73052002.0,6.207667,45.486667,820.0,73.0
BOURGOIN_2019_38,BOURGOIN,38053001.0,5.265,45.605,254.0,38.0
BOURRANINRAE_2019_47,BOURRANINRAE,47038002.0,0.413167,44.331833,55.0,47.0
BOUYSURORVIN_2019_10,BOUYSURORVIN,10057001.0,3.504833,48.439833,102.0,10.0
BRANGES_SAPC_2019_71,BRANGES_SAPC,71056003.0,5.206667,46.645833,197.0,71.0
BRANNE_SAPC_2019_25,BRANNE_SAPC,25087002.0,6.472167,47.378,287.0,25.0
BRANTOME_2019_24,BRANTOME,24064001.0,0.645833,45.356833,129.0,24.0
BRESTGUIPAVAS_2019_29,BRESTGUIPAVAS,29075001.0,-4.391167,48.453833,92.0,29.0
BRETENOUX_2019_46,BRETENOUX,46038002.0,1.838333,44.9125,136.0,46.0
BRIVESOUILLAC_2019_19,BRIVESOUILLAC,19147001.0,1.491667,45.036333,295.0,19.0
BRIVE_2019_19,BRIVE,19031008.0,1.473333,45.146667,115.0,19.0
BROUZET_LES_ALES_2019_30,BROUZET_LES_ALES,30055001.0,4.284833,44.131167,603.0,30.0
BRUX_SAPC_2019_86,BRUX_SAPC,86039001.0,0.190333,46.275667,148.0,86.0
BUGEAT_2019_19,BUGEAT,19033001.0,1.930333,45.602667,694.0,19.0
BUHLLORRAINE_2019_57,BUHLLORRAINE,57119001.0,7.079833,48.7195,258.0,57.0
BUIS_BARONNIES_2019_26,BUIS_BARONNIES,26063002.0,5.270667,44.277833,390.0,26.0
BURE_LES_TEMPLIERS_SAPC_2019_21,BURE_LES_TEMPLIERS_SAPC,21116002.0,4.948167,47.7195,461.0,21.0
BUSSANG_2019_88,BUSSANG,88081004.0,6.868,47.892167,615.0,88.0
BU_SAPC_2019_28,BU_SAPC,28064002.0,1.493167,48.8015,132.0,28.0
CABRIERES_DAVIGNON_2019_84,CABRIERES_DAVIGNON,84025001.0,5.164833,43.883667,142.0,84.0
CAGNANO_2019_20,CAGNANO,20046002.0,9.4395,42.886667,278.0,20.0
CALVI_2019_20,CALVI,20050001.0,8.7915,42.5295,57.0,20.0
CAMPILE_SAPC_2019_20,CAMPILE_SAPC,20054002.0,9.353,42.494667,499.0,20.0
CAMPISTROUS_2019_65,CAMPISTROUS,65125001.0,0.3665,43.127167,593.0,65.0
CAMPS_2019_19,CAMPS,19034001.0,1.988333,44.983667,519.0,19.0
CANETDESALARS_SAPC_2019_12,CANETDESALARS_SAPC,12050001.0,2.737167,44.2335,860.0,12.0
CAPTIEUXRETJONS_2019_40,CAPTIEUXRETJONS,40164004.0,-0.286167,44.185,131.0,40.0
CARCASSONNE_2019_11,CARCASSONNE,11069001.0,2.2955,43.215333,128.0,11.0
CARROS_SAPC_2019_06,CARROS_SAPC,6033002.0,7.209167,43.786667,78.0,6.0
CARSPACH_2019_68,CARSPACH,68062001.0,7.212833,47.632,332.0,68.0
CASSIS_2019_13,CASSIS,13022003.0,5.503167,43.222167,212.0,13.0
CASTIRLA_2019_20,CASTIRLA,20083001.0,9.134167,42.380167,376.0,20.0
CAUSSOLS_2019_06,CAUSSOLS,6037002.0,6.923167,43.752333,1268.0,6.0
CAYLUS_2019_82,CAYLUS,82038001.0,1.78,44.235,220.0,82.0
CAZATS_2019_33,CAZATS,33116001.0,-0.186167,44.463167,114.0,33.0
CERCIER_2019_74,CERCIER,74051002.0,6.0435,46.031833,492.0,74.0
CHABLIS_SAPC_2019_89,CHABLIS_SAPC,89068001.0,3.791167,47.822,141.0,89.0
CHAILLAC_SAPC_2019_36,CHAILLAC_SAPC,36035002.0,1.302167,46.456667,126.0,36.0
CHALONCHAMPFO_2019_71,CHALONCHAMPFO,71081001.0,4.825667,46.827,187.0,71.0
CHALUS_SAPC_2019_87,CHALUS_SAPC,87032004.0,0.979,45.646167,403.0,87.0
CHAMBERYAIX_2019_73,CHAMBERYAIX,73329001.0,5.878,45.641333,235.0,73.0
CHAMONIX_2019_74,CHAMONIX,74056001.0,6.8775,45.9295,1042.0,74.0
CHAMPAGNOLE_2019_39,CHAMPAGNOLE,39097003.0,5.886,46.756833,537.0,39.0
CHAMPENOUXARBOINRAE_2019_54,CHAMPENOUXARBOINRAE,54113002.0,6.340167,48.750667,255.0,54.0
CHANNAY_LATHAN_2019_37,CHANNAY_LATHAN,37055002.0,0.255333,47.4795,87.0,37.0
CHAPELLEDANG_SAPC_2019_18,CHAPELLEDANG_SAPC,18047001.0,2.426667,47.373833,190.0,18.0
CHAPELLEENVERCORS_SAPC_2019_26,CHAPELLEENVERCORS_SAPC,26074001.0,5.422167,44.9615,879.0,26.0
CHARGEYLESGRAY_2019_70,CHARGEYLESGRAY,70132001.0,5.5955,47.507,244.0,70.0
CHARMES_SAPC_2019_03,CHARMES_SAPC,3061001.0,3.233667,46.0635,330.0,3.0
CHAROLLES_2019_71,CHAROLLES,71106001.0,4.281167,46.4395,282.0,71.0
CHARTRES_2019_28,CHARTRES,28070001.0,1.501167,48.4605,155.0,28.0
CHATEAUNEUF_GRASSE_2019_06,CHATEAUNEUF_GRASSE,6038001.0,6.996167,43.678333,379.0,6.0
CHATEAUPONSAC_2019_87,CHATEAUPONSAC,87041001.0,1.265167,46.137667,282.0,87.0
CHATEAUVILLAIN_2019_52,CHATEAUVILLAIN,52114001.0,4.908,48.047,227.0,52.0
CHATEAU_CHINON_2019_58,CHATEAU_CHINON,58062001.0,3.934333,47.070333,598.0,58.0
CHAUMONTSEMOUTIERS_2019_52,CHAUMONTSEMOUTIERS,52469001.0,5.046,48.092167,294.0,52.0
CHAUMONT_SAPC_2019_55,CHAUMONT_SAPC,55108004.0,5.264667,48.931333,294.0,55.0
CHEILLE_2019_37,CHEILLE,37067003.0,0.403833,47.260833,60.0,37.0
CHERONNAC_SAPC_2019_87,CHERONNAC_SAPC,87044001.0,0.76,45.753833,295.0,87.0
CHEYLARD_SA_2019_07,CHEYLARD_SA,7064001.0,4.4375,44.914833,418.0,7.0
CHINON_VITI_2019_37,CHINON_VITI,37072002.0,0.233833,47.184333,76.0,37.0
CHOLET_2019_49,CHOLET,49099004.0,-0.891667,46.996667,130.0,49.0
CHOMERAC_SA_DOUBLE_2019_07,CHOMERAC_SA_DOUBLE,,,,,
CHOMERAC_SA_RCE_2019_07,CHOMERAC_SA_RCE,7066001.0,4.648333,44.6995,216.0,7.0
CHOUE_2019_41,CHOUE,41053001.0,0.912833,47.969167,163.0,41.0
CLAMECY_2019_58,CLAMECY,58079004.0,3.509,47.441,215.0,58.0
COGNAC_2019_16,COGNAC,16089001.0,-0.315833,45.665,30.0,16.0
COGOLIN_SAPC_2019_83,COGOLIN_SAPC,83042001.0,6.510333,43.261667,31.0,83.0
COLDESSAISIES_2019_73,COLDESSAISIES,73132003.0,6.535333,45.755,1614.0,73.0
COLLOBRIERES_SAPC_2019_83,COLLOBRIERES_SAPC,83043005.0,6.258,43.232167,128.0,83.0
COLTINES_2019_15,COLTINES,15053001.0,2.990667,45.074667,979.0,15.0
COL_DE_LA_LOGE_SAPC_2019_42,COL_DE_LA_LOGE_SAPC,42040001.0,3.780333,45.743833,1261.0,42.0
COMBLOUX_2019_74,COMBLOUX,74083001.0,6.643333,45.898333,940.0,74.0
COMBOVIN_2019_26,COMBOVIN,26100001.0,5.09,44.8345,820.0,26.0
COMMERVEIL_SAPC_2019_72,COMMERVEIL_SAPC,72086001.0,0.353667,48.315333,105.0,72.0
CONCA_2019_20,CONCA,20092001.0,9.3485,41.717,253.0,20.0
CONDE_SUR_VIRE_SAPC_2019_50,CONDE_SUR_VIRE_SAPC,50139001.0,-1.0405,49.050833,28.0,50.0
CONTAMINESUR_ARVE_2019_74,CONTAMINESUR_ARVE,74087001.0,6.34,46.128667,452.0,74.0
COULANS_2019_25,COULANS,25223002.0,6.0205,47.023333,468.0,25.0
COULOUNIEIX_2019_24,COULOUNIEIX,24138001.0,0.7,45.176667,205.0,24.0
COUROUVRE_2019_55,COUROUVRE,55129001.0,5.358333,48.936833,324.0,55.0
COURPIERE_2019_63,COURPIERE,63125001.0,3.533333,45.75,325.0,63.0
CRANGEVRIER_2019_74,CRANGEVRIER,74093001.0,6.107833,45.910833,426.0,74.0
CREIL_2019_60,CREIL,60175001.0,2.520833,49.252167,88.0,60.0
CROIX_MILLET_2019_07,CROIX_MILLET,7187001.0,4.241333,44.606333,779.0,7.0
CROUYSUROURCQ_2019_77,CROUYSUROURCQ,77148002.0,3.070333,49.092833,62.0,77.0
CRUZY_SAPC_2019_89,CRUZY_SAPC,89131001.0,4.2245,47.852,291.0,89.0
CUDOT_SAPC_2019_89,CUDOT_SAPC,89133001.0,3.1775,47.983833,170.0,89.0
CUERS_2019_83,CUERS,83049005.0,6.131333,43.247667,72.0,83.0
CUGESLESPINS_2019_13,CUGESLESPINS,13030001.0,5.700167,43.274,184.0,13.0
DEAUX_2019_30,DEAUX,30101001.0,4.143667,44.071833,185.0,30.0
DIGNE_LES_BAINS_2019_04,DIGNE_LES_BAINS,4070009.0,6.186667,44.07,554.0,4.0
DIJONLONGVIC_2019_21,DIJONLONGVIC,21473001.0,5.088333,47.267833,219.0,21.0
DINARD_2019_35,DINARD,35228001.0,-2.076333,48.584833,65.0,35.0
DIOU_2019_03,DIOU,3100001.0,3.706667,46.541667,220.0,3.0
DOMMARTINAUXBOIS_SAPC_2019_88,DOMMARTINAUXBOIS_SAPC,88147001.0,6.280167,48.160667,396.0,88.0
DONZERE_2019_26,DONZERE,26116001.0,4.711667,44.443333,90.0,26.0
DORANS_2019_90,DORANS,90035001.0,6.837,47.591667,401.0,90.0
DOUZY_2019_08,DOUZY,8145001.0,5.039833,49.658,153.0,8.0
DRAGUIGNAN_SAPC_2019_83,DRAGUIGNAN_SAPC,83050007.0,6.453333,43.526167,173.0,83.0
DUN_2019_18,DUN,18087001.0,2.566167,46.878333,160.0,18.0
DURBANCORBIERES_2019_11,DURBANCORBIERES,11124003.0,2.819167,42.993167,120.0,11.0
DURENQUE_SAPC_2019_12,DURENQUE_SAPC,12092001.0,2.6445,44.111833,812.0,12.0
EGLETONS_2019_19,EGLETONS,19073006.0,2.059167,45.398833,610.0,19.0
EMBRUN_2019_05,EMBRUN,5046001.0,6.508667,44.571167,873.0,5.0
ENTRECASTEAUX_2019_83,ENTRECASTEAUX,83051001.0,6.252167,43.521333,279.0,83.0
EPEHY_SAPC_2019_80,EPEHY_SAPC,80271002.0,3.1215,50.001167,117.0,80.0
EPENOY_2019_25,EPENOY,25219002.0,6.366333,47.127167,752.0,25.0
ERCKARTSWILLER_SAPC_2019_67,ERCKARTSWILLER_SAPC,67126002.0,7.364167,48.873,245.0,67.0
ERNEE_2019_53,ERNEE,53096004.0,-0.9625,48.295667,168.0,53.0
ERNEVILLE_AUX_BOIS_SAPC_2019_55,ERNEVILLE_AUX_BOIS_SAPC,55179001.0,5.403833,48.7495,313.0,55.0
ERROUVILLE_SAPC_2019_54,ERROUVILLE_SAPC,54181001.0,5.909833,49.42,373.0,54.0
ESSEYETMAIZE_2019_54,ESSEYETMAIZE,54182001.0,5.809167,48.919333,218.0,54.0
ESTREESMONSINRAE_2019_80,ESTREESMONSINRAE,80557001.0,3.031167,49.874833,87.0,80.0
EVIAN_2019_74,EVIAN,74119002.0,6.5665,46.3965,395.0,74.0
EVIAN_SA_2019_74,EVIAN_SA,74119003.0,6.5825,46.382333,725.0,74.0
EVREUXHUEST_2019_27,EVREUXHUEST,27347001.0,1.221667,49.025,138.0,27.0
EZE_2019_06,EZE,6059003.0,7.365833,43.738833,704.0,6.0
FANJEAUX_SAPC_2019_11,FANJEAUX_SAPC,11136001.0,2.07,43.202,182.0,11.0
FAUGERES_2019_07,FAUGERES,7088001.0,4.136167,44.474667,430.0,7.0
FAYETLECHATEA_2019_63,FAYETLECHATEA,63157001.0,3.429167,45.696667,585.0,63.0
FECLAZ_SAPC_2019_73,FECLAZ_SAPC,73098003.0,5.983667,45.647167,1328.0,73.0
FELINES_SAPC_2019_43,FELINES_SAPC,43093001.0,3.742833,45.265833,1014.0,43.0
FELON_SAPC_2019_90,FELON_SAPC,90044001.0,6.984167,47.704333,383.0,90.0
FERRIERELARCON_2019_37,FERRIERELARCON,37107001.0,0.875,46.9875,116.0,37.0
FEURS_2019_42,FEURS,42094003.0,4.233833,45.7385,347.0,42.0
FIGARI_2019_20,FIGARI,20114002.0,9.103667,41.505167,20.0,20.0
FLAINE_SAPC_2019_74,FLAINE_SAPC,74014004.0,6.697167,46.002833,1611.0,74.0
FONDETTES_2019_37,FONDETTES,37109001.0,0.604167,47.425333,93.0,37.0
FONTAINEBLEAU_SAPC_2019_77,FONTAINEBLEAU_SAPC,77186002.0,2.6785,48.406,84.0,77.0
FONTAINELESVV_2019_02,FONTAINELESVV,2321002.0,3.877833,49.837333,186.0,2.0
FONTANNES_2019_43,FONTANNES,43096001.0,3.419667,45.300333,435.0,43.0
FORMIGUERES_2019_66,FORMIGUERES,66082004.0,2.111333,42.616,1495.0,66.0
FOUGEROLLES_SAPC_2019_70,FOUGEROLLES_SAPC,70245003.0,6.388833,47.8985,315.0,70.0
FRESNAYEAUSAUVAGE_SAPC_2019_61,FRESNAYEAUSAUVAGE_SAPC,61179001.0,-0.263667,48.722333,229.0,61.0
FRESNOYLARIVIERE_2019_60,FRESNOYLARIVIERE,60260001.0,2.918333,49.284833,61.0,60.0
FRIGNICOURT_2019_51,FRIGNICOURT,51262001.0,4.618,48.701167,113.0,51.0
FROTEY_SAPC_2019_70,FROTEY_SAPC,70261001.0,6.1965,47.639167,360.0,70.0
GAILLARD_2019_74,GAILLARD,74133001.0,6.210333,46.176,399.0,74.0
GALLARGUES_LE_MONTUEUX_2019_30,GALLARGUES_LE_MONTUEUX,30123001.0,4.171667,43.714833,17.0,30.0
GAP_2019_05,GAP,5061008.0,6.091667,44.568333,750.0,5.0
GAVARNIE_SAPC_2019_65,GAVARNIE_SAPC,65188005.0,-0.010833,42.733833,1410.0,65.0
GEISHOUSE_SAPC_2019_68,GEISHOUSE_SAPC,68102001.0,7.056833,47.875333,618.0,68.0
GELLES_2019_63,GELLES,63163001.0,2.799333,45.7535,784.0,63.0
GENOLHAC_2019_30,GENOLHAC,30130001.0,3.9615,44.342833,519.0,30.0
GENOUILLAC_2019_23,GENOUILLAC,23089001.0,1.985,46.352333,306.0,23.0
GERARDMER_2019_88,GERARDMER,88196008.0,6.878333,48.061667,735.0,88.0
GERVANS_2019_26,GERVANS,26380002.0,4.828833,45.1125,157.0,26.0
GIUNCAGGIO_SAPC_2019_20,GIUNCAGGIO_SAPC,20126001.0,9.369333,42.2165,685.0,20.0
GLENAY_SAPC_2019_79,GLENAY_SAPC,79134001.0,-0.253667,46.856333,121.0,79.0
GONNEVILLE_2019_50,GONNEVILLE,50209001.0,-1.4635,49.652667,134.0,50.0
GOURDON_2019_46,GOURDON,46127001.0,1.396667,44.745,260.0,46.0
GRANDCHAMP_SAPC_2019_89,GRANDCHAMP_SAPC,89192001.0,3.1895,47.7815,180.0,89.0
GRANDCOMBECHATELEU_SAPC_2019_25,GRANDCOMBECHATELEU_SAPC,25285001.0,6.567167,47.019167,769.0,25.0
GRANDFONTAINE_SAPC_2019_67,GRANDFONTAINE_SAPC,67165006.0,7.148,48.507667,736.0,67.0
GRANES_2019_11,GRANES,11168001.0,2.2505,42.909167,420.0,11.0
GRENOBLEST_GEOIRS_2019_38,GRENOBLEST_GEOIRS,38384001.0,5.313333,45.364,384.0,38.0
GRENOBLE_LVD_2019_38,GRENOBLE_LVD,38538002.0,5.8485,45.217167,220.0,38.0
GREZENBOUERE_2019_53,GREZENBOUERE,53110002.0,-0.542333,47.891,93.0,53.0
GROISY_SAPC_2019_74,GROISY_SAPC,74137001.0,6.1745,46.012667,670.0,74.0
GROSPIERRES_SA_2019_07,GROSPIERRES_SA,7101002.0,4.295833,44.4115,107.0,7.0
GUERANDE_2019_44,GUERANDE,44069002.0,-2.430167,47.292333,4.0,44.0
GUERETST_LAURENT_2019_23,GUERETST_LAURENT,23206002.0,1.950333,46.1755,365.0,23.0
GUEUGNON_2019_71,GUEUGNON,71230002.0,4.020833,46.598167,305.0,71.0
GUILLONVILLE_CA28_2019_28,GUILLONVILLE_CA28,28190001.0,1.666167,48.091333,132.0,28.0
GUIPY_SAPC_2019_58,GUIPY_SAPC,58132001.0,3.570333,47.212833,274.0,58.0
HAMSURMEUSE_2019_08,HAMSURMEUSE,8207001.0,4.7795,50.116,109.0,8.0
HESTROFF_SAPC_2019_57,HESTROFF_SAPC,57322001.0,6.433333,49.255667,221.0,57.0
HOUCHES_LES_2019_74,HOUCHES_LES,74143003.0,6.800667,45.8925,1004.0,74.0
HYERES_2019_83,HYERES,83069001.0,6.147,43.1005,2.0,83.0
ILE_ROUSSE_2019_20,ILE_ROUSSE,20093002.0,8.922667,42.633167,142.0,20.0
ISCHES_SAPC_2019_88,ISCHES_SAPC,88248001.0,5.8175,48.016667,342.0,88.0
ISSOIRE_2019_63,ISSOIRE,63178001.0,3.262333,45.535333,372.0,63.0
ISTRES_2019_13,ISTRES,13047002.0,4.988333,43.513333,44.0,13.0
JALOGNY_SAPC_2019_71,JALOGNY_SAPC,71240001.0,4.651,46.402167,246.0,71.0
JARSY_SAPC_2019_73,JARSY_SAPC,73139001.0,6.176833,45.658833,832.0,73.0
JOURS_LES_BAIGNEUX_SAPC_2019_21,JOURS_LES_BAIGNEUX_SAPC,21326001.0,4.596333,47.636,392.0,21.0
JUNIVILLE_2019_08,JUNIVILLE,8239002.0,4.395,49.391667,98.0,8.0
LABECEDE_LAURAGAIS_SAPC_2019_11,LABECEDE_LAURAGAIS_SAPC,11181002.0,2.022167,43.3895,408.0,11.0
LABLACHERE_2019_07,LABLACHERE,7117002.0,4.208333,44.480833,295.0,7.0
LAC_AIGUEBELETTE_2019_73,LAC_AIGUEBELETTE,73191005.0,5.795833,45.564833,375.0,73.0
LAGAUBRETIERE_SAPC_2019_85,LAGAUBRETIERE_SAPC,85097001.0,-1.023833,46.925167,190.0,85.0
LAHAS_2019_32,LAHAS,32182001.0,0.887833,43.5475,251.0,32.0
LANDOSCHARBON_2019_43,LANDOSCHARBON,43111002.0,3.843667,44.858,1148.0,43.0
LANLEFF_2019_22,LANLEFF,22108001.0,-3.0405,48.691167,78.0,22.0
LANMEUR_2019_29,LANMEUR,29113001.0,-3.692667,48.6625,57.0,29.0
LANOEBLANCHE_2019_35,LANOEBLANCHE,35202001.0,-1.765,47.780167,89.0,35.0
LANTOSQUE_SAPC_2019_06,LANTOSQUE_SAPC,6074005.0,7.307,43.972,550.0,6.0
LAONS_2019_28,LAONS,28206001.0,1.173167,48.706833,171.0,28.0
LAPALUD_2019_84,LAPALUD,84064001.0,4.658167,44.3205,46.0,84.0
LASSEUBE_SAPC_2019_64,LASSEUBE_SAPC,64324002.0,-0.4855,43.2045,247.0,64.0
LASSY_SAPC_2019_14,LASSY_SAPC,14357002.0,-0.6925,48.9265,223.0,14.0
LAUNOISSURVENCE_SAPC_2019_08,LAUNOISSURVENCE_SAPC,8248002.0,4.534667,49.671833,218.0,8.0
LAVOUTECHILHAC_2019_43,LAVOUTECHILHAC,43118001.0,3.41,45.155833,491.0,43.0
LA_BOISSAUDE_ROCHEJEAN_2019_25,LA_BOISSAUDE_ROCHEJEAN,25494001.0,6.322833,46.729,1222.0,25.0
LA_BRESSE_SAPC_2019_88,LA_BRESSE_SAPC,88075005.0,6.9415,48.007667,772.0,88.0
LA_BROSSEMX_2019_77,LA_BROSSEMX,77054001.0,3.023333,48.351667,77.0,77.0
LA_COURTINE_2019_23,LA_COURTINE,23067001.0,2.263667,45.702667,772.0,23.0
LA_DESTROUSSE_SAPC_2019_13,LA_DESTROUSSE_SAPC,13031002.0,5.601,43.386667,201.0,13.0
LA_FAURIE_2019_05,LA_FAURIE,5055001.0,5.750167,44.566667,825.0,5.0
LA_FERRIERE_AIROUX_SAPC_2019_86,LA_FERRIERE_AIROUX_SAPC,86097001.0,0.410333,46.321,122.0,86.0
LA_GRAND_COMBE_2019_30,LA_GRAND_COMBE,30132002.0,4.023333,44.245,415.0,30.0
LA_LOUPE_SAPC_2019_28,LA_LOUPE_SAPC,28214003.0,1.013333,48.481,200.0,28.0
LA_MOTHE_ACHARD_2019_85,LA_MOTHE_ACHARD,85152001.0,-1.633167,46.620833,58.0,85.0
LA_MOTTE_DU_CAIRE_2019_04,LA_MOTTE_DU_CAIRE,4134002.0,6.0305,44.326667,665.0,4.0
LA_MUREARGENS_2019_04,LA_MUREARGENS,4136001.0,6.520167,43.977,920.0,4.0
LA_PANOUSE_SAPC_2019_48,LA_PANOUSE_SAPC,48108001.0,3.589333,44.728667,1260.0,48.0
LA_PLAGNE_SAPC_2019_73,LA_PLAGNE_SAPC,73150004.0,6.675167,45.500333,2120.0,73.0
LA_ROCHEPOT_2019_21,LA_ROCHEPOT,21527001.0,4.674,46.9525,417.0,21.0
LA_ROCHE_SUR_YON_2019_85,LA_ROCHE_SUR_YON,85191003.0,-1.381833,46.705,88.0,85.0
LA_SOUTERRAINE_2019_23,LA_SOUTERRAINE,23176001.0,1.451833,46.2425,370.0,23.0
LA_VACQUERIE_SAPC_2019_34,LA_VACQUERIE_SAPC,34317001.0,3.457833,43.792,620.0,34.0
LES_ARCS_SAPC_2019_83,LES_ARCS_SAPC,83004004.0,6.470833,43.451,55.0,83.0
LES_CARROZ_2019_74,LES_CARROZ,74014002.0,6.644,46.024667,1151.0,74.0
LES_ESTABLES_SAPC_2019_43,LES_ESTABLES_SAPC,43091005.0,4.161,44.9005,1350.0,43.0
LES_EYZIES_DE_TAYAC_2019_24,LES_EYZIES_DE_TAYAC,24172001.0,1.0195,44.935167,73.0,24.0
LES_MARTYS_2019_11,LES_MARTYS,11221004.0,2.292333,43.4085,760.0,11.0
LES_MAYONS_SAPC_2019_83,LES_MAYONS_SAPC,83075001.0,6.358333,43.316833,147.0,83.0
LES_ROCHILLESNIVOSE_2019_73,LES_ROCHILLESNIVOSE,73306401.0,6.469,45.085,2444.0,73.0
LES_SAUVAGES_2019_69,LES_SAUVAGES,69174002.0,4.384167,45.935333,831.0,69.0
LES_VANSSA_2019_07,LES_VANSSA,7334004.0,4.150833,44.4155,140.0,7.0
LETOUQUET_2019_62,LETOUQUET,62826001.0,1.622833,50.5145,5.0,62.0
LEUCATE_2019_11,LEUCATE,11202001.0,3.059667,42.917333,42.0,11.0
LEVENS_2019_06,LEVENS,6075007.0,7.21,43.846333,691.0,6.0
LEVIER_SAPC_2019_25,LEVIER_SAPC,25334001.0,6.124167,46.949333,713.0,25.0
LEVIE_2019_20,LEVIE,20142001.0,9.125833,41.7035,571.0,20.0
LEVROUX_TREG_2019_36,LEVROUX_TREG,36093002.0,1.663,46.948667,169.0,36.0
LEZIGNANCORBIERES_2019_11,LEZIGNANCORBIERES,11203004.0,2.728833,43.173,60.0,11.0
LE_BLEYMARD_SAPC_2019_48,LE_BLEYMARD_SAPC,48027003.0,3.748167,44.4515,1418.0,48.0
LE_BOULOU_2019_66,LE_BOULOU,66024001.0,2.8435,42.5285,77.0,66.0
LE_BOURGET_2019_95,LE_BOURGET,95088001.0,2.427667,48.967333,49.0,95.0
LE_BUISSON_2019_48,LE_BUISSON,48032002.0,3.221667,44.648333,1110.0,48.0
LE_CASTELLET_2019_83,LE_CASTELLET,83035001.0,5.784667,43.252167,417.0,83.0
LE_CASTELLET_SAPC_2019_83,LE_CASTELLET_SAPC,83035002.0,5.770167,43.184,66.0,83.0
LE_CHEVRILNIVOSE_2019_73,LE_CHEVRILNIVOSE,73296406.0,6.955333,45.499667,2559.0,73.0
LE_GRANDBORNAND_2019_74,LE_GRANDBORNAND,74136005.0,6.471833,45.973333,1430.0,74.0
LE_GRANDPRES_2019_37,LE_GRANDPRES,37113001.0,0.796333,46.921167,58.0,37.0
LE_HORPS_2019_53,LE_HORPS,53116003.0,-0.440833,48.405667,268.0,53.0
LE_HOUGA_2019_32,LE_HOUGA,32155001.0,-0.1775,43.745833,141.0,32.0
LE_LIORAN_SAPC_2019_15,LE_LIORAN_SAPC,15101004.0,2.747667,45.080833,1236.0,15.0
LE_MONTDORE_BG_2019_63,LE_MONTDORE_BG,63236002.0,2.807,45.5745,1050.0,63.0
LE_MONTDORE_SAPC_2019_63,LE_MONTDORE_SAPC,63236003.0,2.8125,45.551833,1220.0,63.0
LE_PERRIER_2019_85,LE_PERRIER,85172001.0,-1.999833,46.8265,2.0,85.0
LE_PERTHUS_2019_66,LE_PERTHUS,66137003.0,2.8595,42.473333,295.0,66.0
LE_PERTUIS_SAPC_2019_43,LE_PERTUIS_SAPC,43150001.0,4.061333,45.098833,1020.0,43.0
LE_PLENEY_2019_74,LE_PLENEY,74191003.0,6.692833,46.168333,1515.0,74.0
LE_PLESSIS_GASSOT_2019_95,LE_PLESSIS_GASSOT,95492001.0,2.406667,49.040333,108.0,95.0
LE_PUYLOUDES_2019_43,LE_PUYLOUDES,43062001.0,3.764,45.0745,833.0,43.0
LE_TECH_LA_LLAU_SAPC_2019_66,LE_TECH_LA_LLAU_SAPC,66206004.0,2.5125,42.439833,927.0,66.0
LE_TOUR_2019_74,LE_TOUR,74056003.0,6.946667,46.003333,1460.0,74.0
LIERGUES_SAPC_2019_69,LIERGUES_SAPC,69114001.0,4.650333,45.9765,290.0,69.0
LIGRE_2019_37,LIGRE,37129002.0,0.273,47.112333,67.0,37.0
LILEBOUCHARD_2019_37,LILEBOUCHARD,37119001.0,0.425167,47.114167,39.0,37.0
LILLELESQUIN_2019_59,LILLELESQUIN,59343001.0,3.0975,50.57,47.0,59.0
LIMERAY_2019_37,LIMERAY,37131002.0,1.011833,47.461167,113.0,37.0
LIMOGESBELLEGARDE_2019_87,LIMOGESBELLEGARDE,87085006.0,1.175,45.861167,402.0,87.0
LIMOGES_VILLE_2019_87,LIMOGES_VILLE,87085009.0,1.2675,45.828667,252.0,87.0
LISIEUX_SAPC_2019_14,LISIEUX_SAPC,14366002.0,0.227,49.165,62.0,14.0
LONS_LE_SAUNIER_2019_39,LONS_LE_SAUNIER,39362001.0,5.517667,46.692833,298.0,39.0
LOUVIGNEDUDESERT_2019_35,LOUVIGNEDUDESERT,35162003.0,-1.129833,48.479333,153.0,35.0
LOUVILLE_2019_28,LOUVILLE,28215001.0,1.816833,48.329333,145.0,28.0
LUCHEPRINGE_2019_72,LUCHEPRINGE,72175002.0,0.088167,47.713,92.0,72.0
LUNEGARDE_2019_46,LUNEGARDE,46181001.0,1.6895,44.6785,383.0,46.0
LUPERSAT_SAPC_2019_23,LUPERSAT_SAPC,23113001.0,2.393167,45.9865,610.0,23.0
LURCYLEVIS_SA_2019_03,LURCYLEVIS_SA,3155003.0,2.947667,46.718333,225.0,3.0
LUS_L_CROIX_HTE_2019_26,LUS_L_CROIX_HTE,26168001.0,5.710833,44.672833,1059.0,26.0
LUXEMBOURG_2019_75,LUXEMBOURG,75106001.0,2.333833,48.844667,46.0,75.0
LYONST_EXUPERY_2019_69,LYONST_EXUPERY,69299001.0,5.077833,45.7265,235.0,69.0
MACON_2019_71,MACON,71270004.0,4.83,46.308333,216.0,71.0
MAGNANVILLE_2019_78,MAGNANVILLE,78354001.0,1.674167,48.963667,123.0,78.0
MALANCOURT_2019_57,MALANCOURT,57019001.0,6.057,49.218833,346.0,57.0
MARCENAT_2019_15,MARCENAT,15114002.0,2.833,45.302667,1075.0,15.0
MARCE_2019_49,MARCE,49188001.0,-0.317,47.561833,53.0,49.0
MARCILLAC_2019_19,MARCILLAC,19125001.0,2.039833,45.2835,598.0,19.0
MARIGNANA_2019_20,MARIGNANA,20154001.0,8.655333,42.188833,515.0,20.0
MARIGNANE_2019_13,MARIGNANE,13054001.0,5.216,43.437667,9.0,13.0
MARSANNE_2019_26,MARSANNE,26176001.0,4.871667,44.643333,280.0,26.0
MARSAZ_2019_26,MARSAZ,26177001.0,4.938667,45.113167,213.0,26.0
MARSILLARGUES_2019_34,MARSILLARGUES,34151003.0,4.178333,43.665,2.0,34.0
MARVILLE_SAPC_2019_28,MARVILLE_SAPC,28239002.0,1.371833,48.652667,153.0,28.0
MASSINGYLESVITTEAUX_SAPC_2019_21,MASSINGYLESVITTEAUX_SAPC,21395001.0,4.586333,47.388667,509.0,21.0
MATHA_2019_17,MATHA,17224001.0,-0.319667,45.858667,38.0,17.0
MATOUR_SAPC_2019_71,MATOUR_SAPC,71289001.0,4.480333,46.304,415.0,71.0
MAUPREVOIR_2019_86,MAUPREVOIR,86152002.0,0.512833,46.169,144.0,86.0
MAUROUX_2019_32,MAUROUX,32248001.0,0.824833,43.906833,201.0,32.0
MAUVEZINSURGUPIE_2019_47,MAUVEZINSURGUPIE,47163001.0,0.160333,44.5615,95.0,47.0
MAZETVOLAMONT_2019_43,MAZETVOLAMONT,43130002.0,4.239833,45.025,1130.0,43.0
MEAILLES_SAPC_2019_04,MEAILLES_SAPC,4115001.0,6.6295,44.031167,1090.0,4.0
MENAT_2019_63,MENAT,63223001.0,2.91,46.105167,410.0,63.0
MENDE_2019_48,MENDE,48095003.0,3.498333,44.518333,709.0,48.0
MENTON_2019_06,MENTON,6083005.0,7.488667,43.785833,216.0,6.0
MEOUNES_LES_MONTRIEUX_SAPC_2019_83,MEOUNES_LES_MONTRIEUX_SAPC,83077001.0,5.964833,43.258,309.0,83.0
MESNILSTPERE_2019_10,MESNILSTPERE,10238001.0,4.322167,48.244833,142.0,10.0
METZERVISSE_2019_57,METZERVISSE,57465001.0,6.283167,49.306333,226.0,57.0
METZFRESCATY_2019_57,METZFRESCATY,57039001.0,6.125333,49.0695,192.0,57.0
METZROBERT_SAPC_2019_10,METZROBERT_SAPC,10241001.0,4.101167,48.0745,140.0,10.0
MEYMAC_2019_19,MEYMAC,19136001.0,2.145,45.536667,710.0,19.0
MEYTHET_2019_74,MEYTHET,74182001.0,6.094,45.928167,455.0,74.0
MIERMAIGNE_2019_28,MIERMAIGNE,28252002.0,0.99,48.253,267.0,28.0
MIMET_2019_13,MIMET,13062002.0,5.499667,43.4185,416.0,13.0
MIRECOURTINRAE_2019_88,MIRECOURTINRAE,88304006.0,6.123333,48.301667,289.0,88.0
MOLESMES_SAPC_2019_89,MOLESMES_SAPC,89260001.0,3.463833,47.610333,355.0,89.0
MOLLANSSOUVEZ_2019_26,MOLLANSSOUVEZ,26188001.0,5.183167,44.234167,280.0,26.0
MONISTROLSURLOIRE_2019_43,MONISTROLSURLOIRE,43137003.0,4.231167,45.314,777.0,43.0
MONTAUBAN_2019_82,MONTAUBAN,82121002.0,1.376667,44.028,106.0,82.0
MONTBARD_SAPC_2019_21,MONTBARD_SAPC,21425001.0,4.3305,47.6285,209.0,21.0
MONTBEUGNY_2019_03,MONTBEUGNY,3180001.0,3.423167,46.536333,275.0,3.0
MONTBOUCHERSJ_2019_26,MONTBOUCHERSJ,26191001.0,4.824167,44.545,136.0,26.0
MONTCLUS_2019_30,MONTCLUS,30175001.0,4.430333,44.268,120.0,30.0
MONTDARDIER_2019_30,MONTDARDIER,30176002.0,3.58,43.947,640.0,30.0
MONTELIMAR_2019_26,MONTELIMAR,26198001.0,4.733,44.581167,73.0,26.0
MONTFORTSURARGENS_SAPC_2019_83,MONTFORTSURARGENS_SAPC,83083001.0,6.127,43.469667,141.0,83.0
MONTGIVRAY_2019_36,MONTGIVRAY,36127002.0,1.974,46.610167,204.0,36.0
MONTLUCON_2019_03,MONTLUCON,3185001.0,2.606667,46.32,207.0,3.0
MONTMELIAN_2019_73,MONTMELIAN,73171002.0,6.049167,45.493833,264.0,73.0
MONTPELLIERAEROPORT_2019_34,MONTPELLIERAEROPORT,34154001.0,3.964667,43.576167,1.0,34.0
MONTREDONLABESSONNIE_2019_81,MONTREDONLABESSONNIE,81182004.0,2.3555,43.725,566.0,81.0
MONTSEGURSLAU_2019_26,MONTSEGURSLAU,26211001.0,4.860833,44.3615,146.0,26.0
MONT_AIGOUAL_2019_30,MONT_AIGOUAL,30339001.0,3.5815,44.121333,1567.0,30.0
MOUCHAMPS_SAPC_2019_85,MOUCHAMPS_SAPC,85153002.0,-1.053333,46.768333,82.0,85.0
MOUROUX_SAPC_2019_77,MOUROUX_SAPC,77320002.0,3.057,48.847167,148.0,77.0
MOUTHOUMET_2019_11,MOUTHOUMET,11260001.0,2.525,42.96,558.0,11.0
MTSTVINCENT_2019_71,MTSTVINCENT,71320001.0,4.477,46.627667,601.0,71.0
MURAT_2019_15,MURAT,15138001.0,2.862167,45.1095,904.0,15.0
MURS_2019_84,MURS,36136001.0,1.168333,46.925,148.0,36.0
MURVIEL_LES_BEZIERS_2019_34,MURVIEL_LES_BEZIERS,34178001.0,3.146,43.476,140.0,34.0
NAIZININRAE_2019_56,NAIZININRAE,56144001.0,-2.8165,48.005333,132.0,56.0
NANCYESSEY_2019_54,NANCYESSEY,54526001.0,6.2215,48.687833,212.0,54.0
NANCYOCHEY_2019_54,NANCYOCHEY,54405001.0,5.959833,48.581,336.0,54.0
NANGIS_2019_77,NANGIS,77327001.0,3.008333,48.563333,125.0,77.0
NANTESBOUGUENAIS_2019_44,NANTESBOUGUENAIS,44020001.0,-1.608833,47.15,26.0,44.0
NARBONNE_2019_11,NARBONNE,11262001.0,3.013333,43.183333,13.0,11.0
NAUSSAC_2019_48,NAUSSAC,48105001.0,3.828333,44.748333,967.0,48.0
NEMOURS_2019_77,NEMOURS,77333003.0,2.715,48.27,73.0,77.0
NEUVIC_2019_19,NEUVIC,19148001.0,2.2815,45.379167,615.0,19.0
NEUVYLEROI_2019_37,NEUVYLEROI,37170001.0,0.596,47.608,103.0,37.0
NEXON_2019_87,NEXON,87106001.0,1.189,45.680833,336.0,87.0
NICERIMIEZ_2019_06,NICERIMIEZ,6088007.0,7.279167,43.738667,238.0,6.0
NICEY_2019_21,NICEY,21454001.0,4.315333,47.860333,209.0,21.0
NIMESCOURBESSAC_2019_30,NIMESCOURBESSAC,30189001.0,4.406333,43.856833,59.0,30.0
NIMESGARONS_2019_30,NIMESGARONS,30258001.0,4.412833,43.772833,94.0,30.0
NIORT_2019_79,NIORT,79191005.0,-0.400167,46.315833,57.0,79.0
NOIRMOUTIER_EN_2019_85,NOIRMOUTIER_EN,85163001.0,-2.257167,47.004667,3.0,85.0
NOTREDAME_DE_BLIQUETUIT_2019_76,NOTREDAME_DE_BLIQUETUIT,76473001.0,0.770667,49.494,4.0,76.0
NOVALAISE_2019_73,NOVALAISE,73191001.0,5.776833,45.597333,460.0,73.0
NOVILLARD_SAPC_2019_90,NOVILLARD_SAPC,90074001.0,6.962167,47.603833,366.0,90.0
NOYERS_SAPC_2019_89,NOYERS_SAPC,89279002.0,3.949,47.682833,266.0,89.0
OCTEVILLE_2019_76,OCTEVILLE,76481001.0,0.091667,49.533,90.0,76.0
OLETTA_2019_20,OLETTA,20185003.0,9.3205,42.632333,75.0,20.0
OMMERAY_SAPC_2019_57,OMMERAY_SAPC,57524001.0,6.690833,48.724333,219.0,57.0
ONDES_2019_31,ONDES,31403002.0,1.321333,43.778333,109.0,31.0
OPPEDE_CRETE_DU_PETIT_LUBERON_2019_84,OPPEDE_CRETE_DU_PETIT_LUBERON,84086001.0,5.146,43.811,672.0,84.0
ORGNAC_AVEN_2019_07,ORGNAC_AVEN,7168001.0,4.421667,44.288333,230.0,7.0
ORLEANS_2019_45,ORLEANS,45055001.0,1.778167,47.990667,123.0,45.0
ORLY_2019_91,ORLY,91027002.0,2.397,48.718,86.0,91.0
ORTHEZ_2019_64,ORTHEZ,64430001.0,-0.771667,43.49,87.0,64.0
OUZOUER_2019_41,OUZOUER,41173001.0,1.526667,47.91,132.0,41.0
PAGNYLECHATEAU_2019_21,PAGNYLECHATEAU,21131001.0,5.190667,47.043167,182.0,21.0
PARISMONTSOURISDOUBLE_2019_75,PARISMONTSOURISDOUBLE,75114007.0,2.337833,48.821667,75.0,75.0
PARISMONTSOURIS_2019_75,PARISMONTSOURIS,75114001.0,2.337833,48.821667,75.0,75.0
PASSIRAC_2019_16,PASSIRAC,16256001.0,-0.078667,45.334,114.0,16.0
PAUILLAC_2019_33,PAUILLAC,33314005.0,-0.782833,45.214333,26.0,33.0
PAUUZEIN_2019_64,PAUUZEIN,64549001.0,-0.416333,43.385,183.0,64.0
PEGOMAS_2019_06,PEGOMAS,6090002.0,6.936667,43.602667,109.0,6.0
PEIRA_CAVA_2019_06,PEIRA_CAVA,6077006.0,7.363333,43.929167,1443.0,6.0
PEISEY_NANCROIX_2019_73,PEISEY_NANCROIX,73197001.0,6.7565,45.544,1350.0,73.0
PEONE_2019_06,PEONE,6094002.0,6.930833,44.099667,1784.0,6.0
PETRETO_BICCHISANO_2019_20,PETRETO_BICCHISANO,20211001.0,8.979167,41.785167,450.0,20.0
PEUXETCOUFFOULEUX_SAPC_2019_12,PEUXETCOUFFOULEUX_SAPC,12179001.0,2.867167,43.761833,830.0,12.0
PEZENASTOURBES_2019_34,PEZENASTOURBES,34311001.0,3.400333,43.437667,40.0,34.0
PHALSBOURG_SAPC_2019_57,PHALSBOURG_SAPC,57168001.0,7.305833,48.766667,377.0,57.0
PIERREFITTE_CIN_SAPC_2019_14,PIERREFITTE_CIN_SAPC,14501002.0,-0.385833,48.891,185.0,14.0
PIERREFONTAINE_2019_25,PIERREFONTAINE,25453001.0,6.528833,47.216667,695.0,25.0
PIERROTONINRAE_2019_33,PIERROTONINRAE,33122003.0,-0.776667,44.738333,60.0,33.0
PIPAY_SAPC_2019_38,PIPAY_SAPC,38504002.0,6.016,45.265333,1578.0,38.0
PLAN_DAUPS_STE_BAUME_SAPC_2019_83,PLAN_DAUPS_STE_BAUME_SAPC,83093005.0,5.728333,43.342667,605.0,83.0
PLAUZAT_SAPC_2019_63,PLAUZAT_SAPC,63282001.0,3.133667,45.632333,503.0,63.0
PLESSISBELLEVILLE_2019_60,PLESSISBELLEVILLE,60500004.0,2.737167,49.106,116.0,60.0
PLOERMEL_2019_56,PLOERMEL,56165003.0,-2.3975,47.950833,65.0,56.0
PLOMELININRAE_2019_29,PLOMELININRAE,29170001.0,-4.128,47.946,33.0,29.0
PLOUAYSA_2019_56,PLOUAYSA,56166005.0,-3.3445,47.916167,75.0,56.0
PLOUDANIELINRAE_2019_29,PLOUDANIELINRAE,29179001.0,-4.327667,48.503833,76.0,29.0
PLOUGUENAST_2019_22,PLOUGUENAST,22219001.0,-2.708333,48.28,150.0,22.0
PLOVAN_2019_29,PLOVAN,29214001.0,-4.3775,47.915833,10.0,29.0
PONTARION_SAPC_2019_23,PONTARION_SAPC,23155001.0,1.852833,45.995667,455.0,23.0
PONTARLIER_2019_25,PONTARLIER,25462001.0,6.32,46.927,808.0,25.0
PONTIVY_AERODROME_2019_56,PONTIVY_AERODROME,56151001.0,-2.916667,48.055667,125.0,56.0
PONTOISE_AERO_2019_95,PONTOISE_AERO,95078001.0,2.0285,49.090333,87.0,95.0
PORQUEROLLES_2019_83,PORQUEROLLES,83069002.0,6.226833,43.0,135.0,83.0
POUILLY_EN_AUX_SAPC_2019_21,POUILLY_EN_AUX_SAPC,21501003.0,4.561,47.251333,412.0,21.0
PRADINAS_SAPC_2019_12,PRADINAS_SAPC,12189001.0,2.255833,44.242167,564.0,12.0
PREAUX_SA_2019_07,PREAUX_SA,7185001.0,4.665,45.14,525.0,7.0
PRINDEYRANCON_SAPC_2019_79,PRINDEYRANCON_SAPC,79220002.0,-0.668667,46.231,8.0,79.0
PUGET_THENIERS_SAPC_2019_06,PUGET_THENIERS_SAPC,6099004.0,6.892333,43.956833,449.0,6.0
PUJAUT_2019_30,PUJAUT,30209001.0,4.775,44.005,110.0,30.0
PUYSTMARTIN_2019_26,PUYSTMARTIN,26258001.0,4.976833,44.618167,211.0,26.0
QUENZA_2019_20,QUENZA,20254006.0,9.142833,41.777667,932.0,20.0
RANDAN_2019_63,RANDAN,63295001.0,3.354167,46.012167,394.0,63.0
REGUSSE_2019_83,REGUSSE,83102001.0,6.128333,43.655,525.0,83.0
REIGNAC_2019_37,REIGNAC,37192001.0,0.899,47.219333,90.0,37.0
REMUZAT_2019_26,REMUZAT,26264002.0,5.367,44.431667,475.0,26.0
RENNES_GALLET_2019_35,RENNES_GALLET,35238003.0,-1.6435,48.126167,66.0,35.0
RENNO_2019_20,RENNO,20258001.0,8.807167,42.190167,755.0,20.0
RIEUMES_2019_31,RIEUMES,31454001.0,1.113,43.415167,261.0,31.0
RIMPLAS_SAPC_2019_06,RIMPLAS_SAPC,6102001.0,7.1335,44.067167,1130.0,6.0
RIONDESLANDES_2019_40,RIONDESLANDES,40243001.0,-0.950833,43.916333,77.0,40.0
RISTOLAS_2019_05,RISTOLAS,5120002.0,6.9845,44.765667,1670.0,5.0
ROCHEFORTSAMSON_SAPC_2019_26,ROCHEFORTSAMSON_SAPC,26273002.0,5.165167,44.990667,368.0,26.0
ROISSY_2019_95,ROISSY,95527001.0,2.534333,49.015167,108.0,95.0
ROLLAINVILLE_2019_88,ROLLAINVILLE,88393003.0,5.716667,48.359167,372.0,88.0
ROMANS_SAPC_2019_26,ROMANS_SAPC,26281001.0,4.998667,45.050167,156.0,26.0
ROMORANTIN_2019_41,ROMORANTIN,41194001.0,1.746667,47.36,104.0,41.0
ROUENBOOS_2019_76,ROUENBOOS,76116001.0,1.178333,49.3895,156.0,76.0
ROUJANINRAE_2019_34,ROUJANINRAE,34237001.0,3.321333,43.491667,73.0,34.0
ROUVRESENWOEVRE_2019_55,ROUVRESENWOEVRE,55443001.0,5.6875,49.224667,226.0,55.0
ROUVROYENSANTERRE_2019_80,ROUVROYENSANTERRE,80682001.0,2.698333,49.765167,95.0,80.0
RUSIO_SAPC_2019_20,RUSIO_SAPC,20264002.0,9.2645,42.364167,860.0,20.0
SABLONS_2019_38,SABLONS,38349001.0,4.768667,45.329667,136.0,38.0
SAINTCASTLEG_2019_22,SAINTCASTLEG,22282001.0,-2.247,48.6445,35.0,22.0
SAINTES_2019_17,SAINTES,17415003.0,-0.652,45.761167,38.0,17.0
SAINTETIENNE_2019_42,SAINTETIENNE,42218010.0,4.261667,45.443333,410.0,42.0
SAINTE_GEMME_LA_PLAINE_SAPC_2019_85,SAINTE_GEMME_LA_PLAINE_SAPC,85216001.0,-1.121333,46.440167,3.0,85.0
SAINTE_MARIE_2019_35,SAINTE_MARIE,35294001.0,-2.0045,47.691333,47.0,35.0
SAINTLOUPSURAUJON_SAPC_2019_52,SAINTLOUPSURAUJON_SAPC,52450002.0,5.092167,47.895,310.0,52.0
SAINTLOUP_SAPC_2019_23,SAINTLOUP_SAPC,23209001.0,2.2645,46.140667,440.0,23.0
SAINTMAIXENTLECOLE_SAPC_2019_79,SAINTMAIXENTLECOLE_SAPC,79270003.0,-0.210333,46.417,83.0,79.0
SAINT_AVIT_SAPC_2019_63,SAINT_AVIT_SAPC,63320001.0,2.5265,45.872833,724.0,63.0
SAINT_GERMAIN_SAPC_2019_72,SAINT_GERMAIN_SAPC,72284001.0,0.093,48.301333,85.0,72.0
SAINT_PRIVE_2019_89,SAINT_PRIVE,89365001.0,2.985333,47.658,198.0,89.0
SALIGNACEYVIGUES_2019_24,SALIGNACEYVIGUES,24516002.0,1.364667,44.936667,276.0,24.0
SALINDRES_2019_30,SALINDRES,30305001.0,4.1525,44.1745,191.0,30.0
SALON_DE_PROVENCE_2019_13,SALON_DE_PROVENCE,13103001.0,5.108,43.612833,58.0,13.0
SAMOENS_2019_74,SAMOENS,74258002.0,6.726667,46.086667,785.0,74.0
SAMPOLO_2019_20,SAMPOLO,20268001.0,9.123,41.943,837.0,20.0
SANCEYLEGRAND_2019_25,SANCEYLEGRAND,25529002.0,6.581667,47.3015,490.0,25.0
SANCOINS_2019_18,SANCOINS,18242001.0,2.9265,46.831333,203.0,18.0
SARI_DORCINO_2019_20,SARI_DORCINO,20270001.0,8.802333,42.0785,407.0,20.0
SARTENECIMETIERE_2019_20,SARTENECIMETIERE,20272001.0,8.962167,41.620167,272.0,20.0
SARTENE_2019_20,SARTENE,20272004.0,8.979333,41.652333,62.0,20.0
SAULCESCHAMPENOISES_2019_08,SAULCESCHAMPENOISES,8401001.0,4.4925,49.423833,147.0,8.0
SAULIEU_2019_21,SAULIEU,21584001.0,4.215,47.264167,586.0,21.0
SAUNAY_2019_37,SAUNAY,37240001.0,0.931333,47.590333,109.0,37.0
SAVIGNE_LATHAN_2019_37,SAVIGNE_LATHAN,37241001.0,0.319667,47.4415,88.0,37.0
SAVIGNY_CLAIRIS_2019_89,SAVIGNY_CLAIRIS,89380001.0,3.104,48.0865,184.0,89.0
SAVIGNY_VERON_2019_37,SAVIGNY_VERON,37242002.0,0.149333,47.227,33.0,37.0
SAYAT_SAPC_2019_63,SAYAT_SAPC,63417001.0,3.045167,45.839667,550.0,63.0
SEDERON_2019_26,SEDERON,26340001.0,5.538833,44.202333,804.0,26.0
SEGREVILLE_2019_31,SEGREVILLE,31540001.0,1.7425,43.491833,212.0,31.0
SEINGBOUSE_2019_57,SEINGBOUSE,57644001.0,6.831,49.127667,347.0,57.0
SELESTAT_SA_2019_67,SELESTAT_SA,67462004.0,7.478333,48.272833,173.0,67.0
SEMUR_EN_AUXOIS_SAPC_2019_21,SEMUR_EN_AUXOIS_SAPC,21603001.0,4.34,47.482,314.0,21.0
SERIGNAC_2019_82,SERIGNAC,46305001.0,1.103333,44.431667,250.0,46.0
SERRALONGUE_2019_66,SERRALONGUE,66194002.0,2.557833,42.399833,700.0,66.0
SERRENERPOL_SAPC_2019_38,SERRENERPOL_SAPC,38275002.0,5.353,45.2845,632.0,38.0
SERVOZ_2019_74,SERVOZ,74266001.0,6.767333,45.931167,815.0,74.0
SIGNYLEPETIT_SAPC_2019_08,SIGNYLEPETIT_SAPC,8420002.0,4.288167,49.9135,309.0,8.0
SISTERON_2019_04,SISTERON,4209005.0,5.916,44.2245,500.0,4.0
SIZUN_2019_29,SIZUN,29277001.0,-4.0205,48.391333,157.0,29.0
SOLENZARA_2019_20,SOLENZARA,20342001.0,9.400833,41.921833,12.0,20.0
SOSPEL_2019_06,SOSPEL,6136005.0,7.433667,43.862833,843.0,6.0
SOURS_SAPC_2019_28,SOURS_SAPC,28380003.0,1.555167,48.406333,147.0,28.0
STALBAN_DES_HURTIERES_2019_73,STALBAN_DES_HURTIERES,73220001.0,6.271333,45.477167,610.0,73.0
STANTHEME_2019_63,STANTHEME,63319002.0,3.886167,45.575833,1263.0,63.0
STBAUDILLE_2019_38,STBAUDILLE,38366001.0,5.796167,44.796,1040.0,38.0
STBONNETLECHATEAU_SAPC_2019_42,STBONNETLECHATEAU_SAPC,42204002.0,4.072,45.436167,822.0,42.0
STCHAMONDP_2019_42,STCHAMONDP,42207005.0,4.534167,45.491,394.0,42.0
STCHRISTOPHESURNAIS_2019_37,STCHRISTOPHESURNAIS,37213003.0,0.464333,47.6155,107.0,37.0
STDIZIER_2019_52,STDIZIER,52448001.0,4.903667,48.631333,139.0,52.0
STEPAIN_2019_37,STEPAIN,37216002.0,0.604833,47.157167,112.0,37.0
STETIENNEVALLEEFRANCAISE_2019_48,STETIENNEVALLEEFRANCAISE,48148004.0,3.854167,44.165833,518.0,48.0
STETIENNE_LUGDARES_2019_07,STETIENNE_LUGDARES,7232001.0,3.9485,44.651333,1022.0,7.0
STE_MARIE_CUINES_2019_73,STE_MARIE_CUINES,73255003.0,6.307167,45.3435,460.0,73.0
STFRAIMBAULT_2019_61,STFRAIMBAULT,61387001.0,-0.7025,48.504333,158.0,61.0
STGENISLAVAL_2019_69,STGENISLAVAL,69204002.0,4.782333,45.694667,290.0,69.0
STGERMAINDETABLES_2019_76,STGERMAINDETABLES,76582001.0,1.167167,49.8395,22.0,76.0
STHILAIREDUH_2019_50,STHILAIREDUH,50484002.0,-1.096667,48.563667,95.0,50.0
STJEANENROYA_2019_26,STJEANENROYA,26307001.0,5.2925,45.009167,308.0,26.0
STJEAN_DE_MAURIENNE_2019_73,STJEAN_DE_MAURIENNE,73248002.0,6.354333,45.282167,550.0,73.0
STJUSTENCHEV_2019_42,STJUSTENCHEV,42248002.0,3.844167,45.9085,612.0,42.0
STLEGER_SAPC_2019_78,STLEGER_SAPC,78562001.0,1.745833,48.706667,176.0,78.0
STMARCELLESVINRAE_2019_26,STMARCELLESVINRAE,26313001.0,4.931333,44.980167,190.0,26.0
STMARDS_2019_10,STMARDS,10350001.0,3.789,48.169833,227.0,10.0
STMARS_SUR_LA_FUTAIEEDF_2019_53,STMARS_SUR_LA_FUTAIEEDF,53238003.0,-1.013167,48.431833,206.0,53.0
STMARTINDUM_2019_21,STMARTINDUM,21561003.0,4.781167,47.4005,578.0,21.0
STMAURICELESCOUCHES_SAPC_2019_71,STMAURICELESCOUCHES_SAPC,71464001.0,4.594833,46.881833,300.0,71.0
STMEMELETENU_2019_44,STMEMELETENU,44181001.0,-1.7825,47.005667,4.0,44.0
STNICOLASDEBOURGUEIL_2019_37,STNICOLASDEBOURGUEIL,37228001.0,0.107833,47.29,44.0,37.0
STPARDOUX_2019_63,STPARDOUX,63382001.0,3.008833,46.041167,602.0,63.0
STPIERRELES_EGAUX_2019_38,STPIERRELES_EGAUX,38442008.0,5.803833,45.317333,950.0,38.0
STPIERRESTJEAN_2019_07,STPIERRESTJEAN,7284001.0,4.108333,44.456667,650.0,7.0
STPRIVAT_2019_19,STPRIVAT,19237001.0,2.096,45.139,585.0,19.0
STSORLINENVA_2019_26,STSORLINENVA,26330001.0,4.930333,45.271167,237.0,26.0
STSULPICE_2019_63,STSULPICE,91578001.0,2.178333,48.541667,76.0,91.0
STSYMPHORIEN_DE_MARMAGNE_2019_71,STSYMPHORIEN_DE_MARMAGNE,71482001.0,4.336167,46.852167,349.0,71.0
ST_AUBAN_2019_04,ST_AUBAN,4049001.0,5.989667,44.062167,458.0,4.0
ST_CANNAT_2019_13,ST_CANNAT,13091001.0,5.251333,43.591333,198.0,13.0
ST_CEZAIRE_SUR_SIAGNE_2019_06,ST_CEZAIRE_SUR_SIAGNE,6118002.0,6.809,43.678667,694.0,6.0
ST_CHRISTOLLESALES_2019_30,ST_CHRISTOLLESALES,30243001.0,4.080333,44.092167,129.0,30.0
ST_CHRISTOL_2019_84,ST_CHRISTOL,84107002.0,5.492833,44.040667,836.0,84.0
ST_CORNIERDESLANDES_2019_61,ST_CORNIERDESLANDES,61377001.0,-0.7295,48.7235,306.0,61.0
ST_FLORENT_VIEI_2019_49,ST_FLORENT_VIEI,49276001.0,-1.011833,47.355333,21.0,49.0
ST_FLOUR_2019_15,ST_FLOUR,15187006.0,3.067333,45.024333,909.0,15.0
ST_GATIEN_DES_B_2019_14,ST_GATIEN_DES_B,14578001.0,0.167,49.3645,139.0,14.0
ST_GERVAIS_2019_33,ST_GERVAIS,33415001.0,-0.472667,45.027167,42.0,33.0
ST_GIRONS_2019_09,ST_GIRONS,9289001.0,1.106833,43.005333,414.0,9.0
ST_JEANSTNICOLAS_2019_05,ST_JEANSTNICOLAS,5145002.0,6.209833,44.670833,1210.0,5.0
ST_JEAN_DARVES_SAPC_2019_73,ST_JEAN_DARVES_SAPC,73242003.0,6.278833,45.206833,1573.0,73.0
ST_JEAN_DE_MINERVOIS_2019_34,ST_JEAN_DE_MINERVOIS,34269001.0,2.857667,43.385667,258.0,34.0
ST_JEAN_DU_GARD_2019_30,ST_JEAN_DU_GARD,30269006.0,3.872,44.1105,196.0,30.0
ST_LEGER_LA_MONTAGNE_SAPC_2019_87,ST_LEGER_LA_MONTAGNE_SAPC,87159002.0,1.459667,46.035333,664.0,87.0
ST_MARTIAL_VIVEYROLS_2019_24,ST_MARTIAL_VIVEYROLS,24452001.0,0.319333,45.357833,166.0,24.0
ST_MARTIN_DENTRAUNES_SAPC_2019_06,ST_MARTIN_DENTRAUNES_SAPC,6125001.0,6.747,44.154667,1642.0,6.0
ST_MARTIN_DE_FRESSENGEAS_2019_24,ST_MARTIN_DE_FRESSENGEAS,24453001.0,0.848333,45.4755,277.0,24.0
ST_MARTIN_DE_LONDRES_2019_34,ST_MARTIN_DE_LONDRES,34274001.0,3.729333,43.7795,214.0,34.0
ST_MICHEL_MAUR_SAPC_2019_73,ST_MICHEL_MAUR_SAPC,73261003.0,6.4645,45.218167,698.0,73.0
ST_M_HINX_STNAINRAE_2019_40,ST_M_HINX_STNAINRAE,40272002.0,-1.299333,43.570833,37.0,40.0
ST_PAUL_DE_FENOUILLET_2019_66,ST_PAUL_DE_FENOUILLET,66187006.0,2.485333,42.8205,300.0,66.0
ST_PIERREDESTRIPIERS_2019_48,ST_PIERREDESTRIPIERS,48176002.0,3.3035,44.2465,929.0,48.0
ST_PONCY_SAPC_2019_15,ST_PONCY_SAPC,15207002.0,3.174167,45.178333,805.0,15.0
ST_QUENTIN_2019_02,ST_QUENTIN,2320001.0,3.206,49.818333,98.0,2.0
ST_SAUVEUR_EN_DIOIS_2019_26,ST_SAUVEUR_EN_DIOIS,26328001.0,5.157833,44.682667,338.0,26.0
ST_SIGISMOND_2019_74,ST_SIGISMOND,74252001.0,6.612167,46.076333,1020.0,74.0
ST_SYLVAIN_SAPC_2019_14,ST_SYLVAIN_SAPC,14659001.0,-0.234333,49.06,62.0,14.0
ST_WITZ_2019_95,ST_WITZ,95580001.0,2.550667,49.085667,141.0,95.0
ST_YRIEIX_LA_PE_2019_87,ST_YRIEIX_LA_PE,87187003.0,1.243833,45.513667,404.0,87.0
SUBLAINES_2019_37,SUBLAINES,37253001.0,0.993167,47.265,111.0,37.0
TANUS_2019_81,TANUS,81292001.0,2.279667,44.107167,537.0,81.0
TARASCON_2019_13,TARASCON,13108002.0,4.666667,43.805,102.0,13.0
TARBESLOURDESPYRENEES_2019_65,TARBESLOURDESPYRENEES,65344001.0,0.0,43.188,360.0,65.0
TAULIGNAN_2019_26,TAULIGNAN,26348001.0,4.989833,44.430167,257.0,26.0
TAURINYA_2019_66,TAURINYA,66204002.0,2.4105,42.580333,770.0,66.0
TAVAUX_SA_2019_39,TAVAUX_SA,39526003.0,5.427333,47.043833,195.0,39.0
TENCE_2019_43,TENCE,43244003.0,4.277167,45.1165,848.0,43.0
TENDU_SAPC_2019_36,TENDU_SAPC,36219001.0,1.588333,46.6615,155.0,36.0
THENON_2019_24,THENON,24550003.0,1.0385,45.112667,265.0,24.0
THONONINRAE_2019_74,THONONINRAE,74281001.0,6.455,46.366667,376.0,74.0
THOREY_SOUS_CHARNY_SAPC_2019_21,THOREY_SOUS_CHARNY_SAPC,21633002.0,4.4395,47.319167,421.0,21.0
TIGNES_SAPC_2019_73,TIGNES_SAPC,73296005.0,6.907167,45.467,2084.0,73.0
TILCHATEL_SAPC_2019_21,TILCHATEL_SAPC,21638002.0,5.2075,47.544833,283.0,21.0
TORTEZAIS_SAPC_2019_03,TORTEZAIS_SAPC,3285001.0,2.857,46.451333,256.0,3.0
TOULON_2019_83,TOULON,83137001.0,5.900667,43.115833,3.0,83.0
TOUROUVRE_SAPC_2019_61,TOUROUVRE_SAPC,61491002.0,0.667167,48.585,217.0,61.0
TOURS_2019_37,TOURS,37179001.0,0.727333,47.4445,108.0,37.0
TOUR_EIFFEL_2019_75,TOUR_EIFFEL,75107005.0,2.2945,48.858333,330.0,75.0
TRAPPES_2019_78,TRAPPES,78621001.0,2.009833,48.774333,167.0,78.0
TRETS_2019_13,TRETS,13110003.0,5.698667,43.445333,264.0,13.0
TROISEPIS_SAPC_2019_68,TROISEPIS_SAPC,68338001.0,7.231,48.1015,656.0,68.0
TULLE_2019_19,TULLE,19272001.0,1.740333,45.2425,235.0,19.0
USINENS_SA_2019_74,USINENS_SA,74285002.0,5.8445,46.013,452.0,74.0
USSELTHALAMY_2019_19,USSELTHALAMY,19201001.0,2.42,45.537333,740.0,19.0
VACHERESSE_2019_74,VACHERESSE,74286001.0,6.669833,46.316333,790.0,74.0
VALDROME_2019_26,VALDROME,26361001.0,5.576667,44.505333,786.0,26.0
VALENCECHABEUI_2019_26,VALENCECHABEUI,26064001.0,4.971833,44.914833,163.0,26.0
VALENCIENNES_2019_59,VALENCIENNES,59606004.0,3.461,50.328333,50.0,59.0
VALLORCINE_PLANDROIT_2019_74,VALLORCINE_PLANDROIT,74290002.0,6.919167,46.0205,1326.0,74.0
VALSLESBAINS_2019_07,VALSLESBAINS,7331001.0,4.360667,44.6695,283.0,7.0
VAL_THORENS_SAPC_2019_73,VAL_THORENS_SAPC,73257005.0,6.581,45.294,2277.0,73.0
VANNESMEUCON_2019_56,VANNESMEUCON,56137001.0,-2.727,47.722,132.0,56.0
VANNESSENE_2019_56,VANNESSENE,56243001.0,-2.714167,47.6045,3.0,56.0
VARAGES_2019_83,VARAGES,83145001.0,5.962833,43.593833,348.0,83.0
VARZY_SAPC_2019_58,VARZY_SAPC,58304005.0,3.386,47.368333,226.0,58.0
VATRYAERO_2019_51,VATRYAERO,51595002.0,4.164667,48.777167,179.0,51.0
VENDAYSMONTALIVE_2019_33,VENDAYSMONTALIVE,33540001.0,-1.119167,45.378667,6.0,33.0
VERNINES_2019_63,VERNINES,63451001.0,2.888333,45.669,1045.0,63.0
VERNOUX_SA_2019_07,VERNOUX_SA,7338005.0,4.626667,44.893333,510.0,7.0
VICHYCHARMEIL_2019_03,VICHYCHARMEIL,3060001.0,3.398667,46.166667,249.0,3.0
VICHYVILLE_2019_03,VICHYVILLE,3310001.0,3.439,46.117667,255.0,3.0
VIC_LE_FESQ_2019_30,VIC_LE_FESQ,30349001.0,4.072167,43.870833,45.0,30.0
VIHIERS_2019_49,VIHIERS,49373001.0,-0.517167,47.148,124.0,49.0
VILLARDEBELLE_SAPC_2019_11,VILLARDEBELLE_SAPC,11412001.0,2.4005,43.014833,593.0,11.0
VILLAR_DARENE_2019_05,VILLAR_DARENE,5181002.0,6.361667,45.030833,1665.0,5.0
VILLAR_ST_PANCRACE_2019_05,VILLAR_ST_PANCRACE,5183001.0,6.640333,44.880333,1310.0,5.0
VILLEFORT_2019_48,VILLEFORT,48198001.0,3.928333,44.441667,620.0,48.0
VILLEFRANCHE_2019_69,VILLEFRANCHE,12300001.0,2.041667,44.35,250.0,12.0
VILLENAVE_DORNONINRAE_2019_33,VILLENAVE_DORNONINRAE,33550001.0,-0.576667,44.79,25.0,33.0
VILLENEUVELESMAGINRAE_2019_34,VILLENEUVELESMAGINRAE,34337001.0,3.853833,43.538167,20.0,34.0
VILLENEUVESURLOT_2019_47,VILLENEUVESURLOT,47323002.0,0.705,44.4,60.0,47.0
VILLETTE_2019_54,VILLETTE,75119002.0,2.336667,48.868333,57.0,75.0
VILLEVIEILLE_2019_30,VILLEVIEILLE,30352002.0,4.090833,43.795167,41.0,30.0
VILLIERSLEBACLE2_2019_91,VILLIERSLEBACLE2,91679002.0,2.116167,48.735333,161.0,91.0
VINON_SUR_VERDON_2019_83,VINON_SUR_VERDON,83150002.0,5.782667,43.734,271.0,83.0
VINSOBRES_2019_26,VINSOBRES,26377002.0,5.058333,44.283333,210.0,26.0
VIVARIO_SAPC_2019_20,VIVARIO_SAPC,20354008.0,9.149167,42.152667,773.0,20.0
VIVES_2019_66,VIVES,66233001.0,2.760833,42.5365,261.0,66.0
VOULTON_SAPC_2019_77,VOULTON_SAPC,77530001.0,3.350333,48.612667,175.0,77.0
WATTEN_2019_59,WATTEN,59647001.0,2.213333,50.833833,7.0,59.0
YZEURE_2019_03,YZEURE,3321001.0,3.352833,46.579167,242.0,3.0
