nom_fichier,station,id,longitude,latitude,altitude,departement
ABBEVILLE_2018_80,ABBEVILLE,80001005,1.835,50.106667,68,80
ACHERES_2018_78,ACHERES,78005002,2.126,48.983167,31,78
ADAST_2018_65,ADAST,65001001,-0.072167,42.972833,446,65
AGENLA_GARENNE_2018_47,AGENLA_GARENNE,47091001,0.594667,44.172167,58,47
AHUN_LYCEE_2018_23,AHUN_LYCEE,23001001,2.029833,46.093333,460,23
AIGUESMORTES_2018_30,AIGUESMORTES,30003001,4.207,43.537167,1,30
AIGUILLES_ROUGESNIVOSE_2018_74,AIGUILLES_ROUGESNIVOSE,74056405,6.896833,45.986333,2365,74
AILLEVILLE_SAPC_2018_10,AILLEVILLE_SAPC,10002001,4.685667,48.254167,195,10
AIX_EN_PROVENCE_2018_13,AIX_EN_PROVENCE,13001009,5.4245,43.5295,173,13
AJACCIOMILELLI_SAPC_2018_20,AJACCIOMILELLI_SAPC,20004014,8.720833,41.9385,86,20
AJACCIO_2018_20,AJACCIO,20004002,8.792667,41.918,5,20
ALBERTVILLE_JO_2018_73,ALBERTVILLE_JO,73011004,6.371833,45.662333,332,73
ALBIEZ_2018_73,ALBIEZ,73013001,6.341,45.2155,1540,73
ALBI_2018_81,ALBI,81004006,2.141667,43.928333,170,81
ALENCON_2018_61,ALENCON,61001001,0.110167,48.4455,143,61
ALISTRO_2018_20,ALISTRO,20303002,9.5415,42.259667,65,20
ALZON_2018_30,ALZON,30009001,3.444,43.979,611,30
AMBERIEU_2018_01,AMBERIEU,1089001,5.329333,45.9765,250,1
AMBOISE_LYCEE_2018_37,AMBOISE_LYCEE,37003004,0.977,47.394167,116,37
ANGERS_VILLE_2018_49,ANGERS_VILLE,49007011,-0.5605,47.4535,35,49
ANGRIE_2018_49,ANGRIE,49008001,-0.970333,47.561667,65,49
ANNONAY_2018_07,ANNONAY,7010001,4.6705,45.246167,336,7
ANTIBES_SAPC_2018_06,ANTIBES_SAPC,6004009,7.111167,43.599167,32,6
APT_2018_84,APT,84003003,5.381833,43.892,222,84
ARBOIS_SAPC_2018_39,ARBOIS_SAPC,39013004,5.740167,46.896,313,39
ARCHAMPS_2018_74,ARCHAMPS,74016001,6.140167,46.131833,560,74
ARGENTAT_2018_19,ARGENTAT,19010001,1.9375,45.101333,190,19
ARLES_2018_13,ARLES,13004003,4.693833,43.51,1,13
ARNAY_SAPC_2018_21,ARNAY_SAPC,21567001,4.498667,47.124833,396,21
ARVIEUX_2018_05,ARVIEUX,5007003,6.728,44.796,1825,5
ASCROS_2018_06,ASCROS,6005001,7.013667,43.922,1173,6
AUBUSSON_SAPC_2018_23,AUBUSSON_SAPC,23008004,2.187833,45.957833,486,23
AUCH_2018_32,AUCH,32013005,0.601167,43.689,122,32
AUTUN_2018_71,AUTUN,71014003,4.301667,46.951667,360,71
AUXERREPERRIGNY_2018_89,AUXERREPERRIGNY,89295001,3.549667,47.824667,152,89
AVIGNON_2018_84,AVIGNON,84007005,4.9025,43.911333,34,84
AVORD_2018_18,AVORD,18092001,2.642167,47.052167,175,18
AYZE_2018_74,AYZE,74024001,6.431333,46.0795,449,74
BALEMULHOUSE_2018_68,BALEMULHOUSE,68297001,7.51,47.614333,263,68
BALLON_DE_SERVANCE_2018_70,BALLON_DE_SERVANCE,70283006,6.791333,47.830833,1213,70
BARCELONNETTE_2018_04,BARCELONNETTE,4019005,6.65,44.388333,1135,4
BASSURELS_2018_48,BASSURELS,48020003,3.630667,44.1965,1042,48
BASTIA_SAPC_2018_20,BASTIA_SAPC,20033015,9.444833,42.704333,26,20
BAUDEMONT_SAPC_2018_71,BAUDEMONT_SAPC,71022001,4.296667,46.2765,337,71
BEAUCOUZE_2018_49,BEAUCOUZE,49020001,-0.614333,47.479,50,49
BEAUFORTSGERV_2018_26,BEAUFORTSGERV,26035001,5.139,44.778,379,26
BEAUFORTSURDORON_2018_73,BEAUFORTSURDORON,73034002,6.568667,45.691,1036,73
BEAUMONT_DU_LAC_2018_87,BEAUMONT_DU_LAC,87009003,1.863167,45.8015,670,87
BEDARIEUX_2018_34,BEDARIEUX,34028001,3.156667,43.615,224,34
BEHONNE_SAPC_2018_55,BEHONNE_SAPC,55041001,5.1885,48.795667,301,55
BELFAHY_SAPC_2018_70,BELFAHY_SAPC,70061002,6.730833,47.784167,847,70
BELLEGARDE_2018_01,BELLEGARDE,23020001,2.3,45.978333,588,23
BELLEISLEENTERRE_2018_22,BELLEISLEENTERRE,22005003,-3.3875,48.55,158,22
BELLEME_SAPC_2018_61,BELLEME_SAPC,61426001,0.55,48.373833,168,61
BELVES_2018_24,BELVES,24035001,1.008333,44.773333,90,24
BENEVENT_SAPC_2018_23,BENEVENT_SAPC,23021001,1.6285,46.121,460,23
BERGERAC_2018_24,BERGERAC,24037002,0.483333,44.851667,51,24
BERGHEIMINRAE_2018_68,BERGHEIMINRAE,68028001,7.345833,48.216333,309,68
BESANCON_2018_25,BESANCON,25056001,5.988833,47.249,307,25
BESIGNAN_2018_26,BESIGNAN,26050001,5.317,44.3205,556,26
BESSEY_2018_21,BESSEY,21065001,4.743167,47.086,593,21
BEZIERSVIAS_2018_34,BEZIERSVIAS,34209002,3.352667,43.322,15,34
BIARRITZPAYSBASQUE_2018_64,BIARRITZPAYSBASQUE,64024001,-1.534333,43.469333,71,64
BIGNAN_2018_56,BIGNAN,56017002,-2.766667,47.883333,160,56
BLOIS_2018_41,BLOIS,41281001,1.212333,47.6785,119,41
BLOYE_2018_74,BLOYE,74035001,5.944667,45.821667,375,74
BONNEVILLE_2018_74,BONNEVILLE,74042001,6.408333,46.078333,447,74
BONZEE_SAPC_2018_55,BONZEE_SAPC,55060002,5.601167,49.092833,235,55
BORDEAUXMERIGNAC_2018_33,BORDEAUXMERIGNAC,33281001,-0.691333,44.830667,47,33
BORMES_LES_MIMOSAS_2018_83,BORMES_LES_MIMOSAS,83019002,6.379333,43.195167,88,83
BOULLEVILLE_2018_27,BOULLEVILLE,27100001,0.392833,49.361,122,27
BOURBON_SAPC_2018_03,BOURBON_SAPC,3036002,3.0495,46.58,270,3
BOURDEAUX_2018_26,BOURDEAUX,26056001,5.142833,44.580167,432,26
BOURGARGENTAL_2018_42,BOURGARGENTAL,42023004,4.5735,45.298667,514,42
BOURGES_2018_18,BOURGES,18033001,2.359833,47.059167,161,18
BOURGET_EN_HUILE_SAPC_2018_73,BOURGET_EN_HUILE_SAPC,73052002,6.207667,45.486667,820,73
BOURGOIN_2018_38,BOURGOIN,38053001,5.265,45.605,254,38
BOURG_ST_MAURICE_2018_73,BOURG_ST_MAURICE,73054001,6.763333,45.612667,865,73
BOURRANINRAE_2018_47,BOURRANINRAE,47038002,0.413167,44.331833,55,47
BOUSSAC_SAPC_2018_23,BOUSSAC_SAPC,23031002,2.228333,46.343333,380,23
BOUYSURORVIN_2018_10,BOUYSURORVIN,10057001,3.504833,48.439833,102,10
BRAINE_2018_02,BRAINE,2110002,3.527,49.351333,61,2
BRESSUIRE_2018_79,BRESSUIRE,79049001,-0.476,46.838167,200,79
BRIVESOUILLAC_2018_19,BRIVESOUILLAC,19147001,1.491667,45.036333,295,19
BUGEAT_2018_19,BUGEAT,19033001,1.930333,45.602667,694,19
BUIS_BARONNIES_2018_26,BUIS_BARONNIES,26063002,5.270667,44.277833,390,26
BURE_LES_TEMPLIERS_SAPC_2018_21,BURE_LES_TEMPLIERS_SAPC,21116002,4.948167,47.7195,461,21
BUSSON_SAPC_2018_52,BUSSON_SAPC,52084002,5.3605,48.328833,387,52
BUZANCY_SAPC_2018_08,BUZANCY_SAPC,8089003,4.9645,49.427333,199,8
CABRIERES_DAVIGNON_2018_84,CABRIERES_DAVIGNON,84025001,5.164833,43.883667,142,84
CADAUJACINRAE_2018_33,CADAUJACINRAE,33080001,-0.559333,44.752833,20,33
CALVI_2018_20,CALVI,20050001,8.7915,42.5295,57,20
CAMPISTROUS_2018_65,CAMPISTROUS,65125001,0.3665,43.127167,593,65
CANNES_2018_06,CANNES,6029003,7.066667,43.516667,10,6
CAPDELAHEVE_2018_76,CAPDELAHEVE,76552001,0.071167,49.509,100,76
CAPFERRET_2018_33,CAPFERRET,33236002,-1.252,44.630667,8,33
CAP_PERTUSATO_2018_20,CAP_PERTUSATO,20041001,9.178333,41.374833,107,20
CARROS_SAPC_2018_06,CARROS_SAPC,6033002,7.209167,43.786667,78,6
CASTELNAUDARY_2018_11,CASTELNAUDARY,11076003,1.953333,43.316667,160,11
CAUNESMINERVOIS_2018_11,CAUNESMINERVOIS,11081001,2.525167,43.345333,302,11
CAUSSOLS_2018_06,CAUSSOLS,6037002,6.923167,43.752333,1268,6
CAYEUXSURMER_2018_80,CAYEUXSURMER,80182001,1.516667,50.183333,8,80
CEYZERIAT_SAPC_2018_01,CEYZERIAT_SAPC,1072001,5.287667,46.204333,260,1
CHABLIS_SAPC_2018_89,CHABLIS_SAPC,89068001,3.791167,47.822,141,89
CHAILLAC_SAPC_2018_36,CHAILLAC_SAPC,36035002,1.302167,46.456667,126,36
CHALLES_LES_EAUX_2018_73,CHALLES_LES_EAUX,73064001,5.970333,45.565167,298,73
CHALONCHAMPFO_2018_71,CHALONCHAMPFO,71081001,4.825667,46.827,187,71
CHALUS_SAPC_2018_87,CHALUS_SAPC,87032004,0.979,45.646167,403,87
CHAMBRECYCIVC_2018_51,CHAMBRECYCIVC,51111001,3.824167,49.183333,150,51
CHAMONIX_2018_74,CHAMONIX,74056001,6.8775,45.9295,1042,74
CHANNAY_LATHAN_2018_37,CHANNAY_LATHAN,37055002,0.255333,47.4795,87,37
CHAPELLEENVERCORS_SAPC_2018_26,CHAPELLEENVERCORS_SAPC,26074001,5.422167,44.9615,879,26
CHAREILCINTRAT_SAPC_2018_03,CHAREILCINTRAT_SAPC,3059001,3.225667,46.275833,286,3
CHARGEYLESGRAY_2018_70,CHARGEYLESGRAY,70132001,5.5955,47.507,244,70
CHARTRES_2018_28,CHARTRES,28070001,1.501167,48.4605,155,28
CHASSIRON_2018_17,CHASSIRON,17323001,-1.411667,46.046833,11,17
CHATEAU_CHINON_2018_58,CHATEAU_CHINON,58062001,3.934333,47.070333,598,58
CHATILLONCIVC_2018_51,CHATILLONCIVC,51136003,3.7595,49.098667,153,51
CHATILLON_SEINE_2018_21,CHATILLON_SEINE,21154001,4.581333,47.849333,262,21
CHEILLE_2018_37,CHEILLE,37067003,0.403833,47.260833,60,37
CHERONNAC_SAPC_2018_87,CHERONNAC_SAPC,87044001,0.76,45.753833,295,87
CHEYLARD_SA_2018_07,CHEYLARD_SA,7064001,4.4375,44.914833,418,7
CHOLET_2018_49,CHOLET,49099004,-0.891667,46.996667,130,49
CHOMERAC_SA_RCE_2018_07,CHOMERAC_SA_RCE,7066001,4.648333,44.6995,216,7
CIVRAY_2018_86,CIVRAY,86078002,0.298667,46.160333,143,86
CLAMECY_2018_58,CLAMECY,58079004,3.509,47.441,215,58
CLARAC_2018_31,CLARAC,31147001,0.617333,43.106,401,31
CLERMONTFD_2018_63,CLERMONTFD,63113001,3.149333,45.786833,331,63
CLUSAZ_LA_2018_74,CLUSAZ_LA,74080001,6.428333,45.898333,1150,74
COGOLIN_SAPC_2018_83,COGOLIN_SAPC,83042001,6.510333,43.261667,31,83
COLLOBRIERES_SAPC_2018_83,COLLOBRIERES_SAPC,83043005,6.258,43.232167,128,83
COLOMBELAFOSSECIVC_2018_10,COLOMBELAFOSSECIVC,10102001,4.779667,48.261667,252,10
COMIAC_2018_46,COMIAC,46071001,2.0,44.965333,562,46
COMPSSURARTUBY_2018_83,COMPSSURARTUBY,83044003,6.471333,43.658833,892,83
CONDE_SAPC_2018_55,CONDE_SAPC,55123002,5.182167,48.867167,265,55
CONTAMINESUR_ARVE_2018_74,CONTAMINESUR_ARVE,74087001,6.34,46.128667,452,74
CORTE_2018_20,CORTE,20096008,9.193167,42.2885,350,20
COULANS_2018_25,COULANS,25223002,6.0205,47.023333,468,25
COURCITE_SAPC_2018_53,COURCITE_SAPC,53083001,-0.222333,48.318667,172,53
COURDIMANCHE_2018_91,COURDIMANCHE,95183001,2.001667,49.033333,54,95
COURPIERE_2018_63,COURPIERE,63125001,3.533333,45.75,325,63
CRANGEVRIER_2018_74,CRANGEVRIER,74093001,6.107833,45.910833,426,74
CREIL_2018_60,CREIL,60175001,2.520833,49.252167,88,60
CRUZY_SAPC_2018_89,CRUZY_SAPC,89131001,4.2245,47.852,291,89
CUDOT_SAPC_2018_89,CUDOT_SAPC,89133001,3.1775,47.983833,170,89
CUERS_2018_83,CUERS,83049005,6.131333,43.247667,72,83
CUNLHAT_2018_63,CUNLHAT,63132002,3.557667,45.6345,700,63
CUY_SAINT_FIACRE_SAPC_2018_76,CUY_SAINT_FIACRE_SAPC,76208001,1.716,49.507833,104,76
DAMBLAINVILLE_2018_14,DAMBLAINVILLE,14216001,-0.148667,48.928,155,14
DEAUX_2018_30,DEAUX,30101001,4.143667,44.071833,185,30
DIJONLONGVIC_2018_21,DIJONLONGVIC,21473001,5.088333,47.267833,219,21
DINARD_2018_35,DINARD,35228001,-2.076333,48.584833,65,35
DIVAJEU_2018_26,DIVAJEU,26115001,4.990333,44.726833,175,26
DOUVAINE_SA_2018_74,DOUVAINE_SA,74105002,6.318333,46.302333,470,74
DRAGUIGNAN_SAPC_2018_83,DRAGUIGNAN_SAPC,83050007,6.453333,43.526167,173,83
DUNKERQUE_2018_59,DUNKERQUE,59183001,2.3395,51.055833,11,59
DUN_SAPC_2018_58,DUN_SAPC,58106005,4.046833,47.312833,598,58
DURBANCORBIERES_2018_11,DURBANCORBIERES,11124003,2.819167,42.993167,120,11
DURENQUE_SAPC_2018_12,DURENQUE_SAPC,12092001,2.6445,44.111833,812,12
ERROUVILLE_SAPC_2018_54,ERROUVILLE_SAPC,54181001,5.909833,49.42,373,54
EUS_2018_66,EUS,66074002,2.446333,42.630167,321,66
EVIAN_2018_74,EVIAN,74119002,6.5665,46.3965,395,74
EVIAN_SA_2018_74,EVIAN_SA,74119003,6.5825,46.382333,725,74
EVREUXHUEST_2018_27,EVREUXHUEST,27347001,1.221667,49.025,138,27
EYMOUTIERS_2018_87,EYMOUTIERS,87064005,1.701167,45.733833,557,87
FAGNIERESINRAE_2018_51,FAGNIERESINRAE,51242001,4.3085,48.939833,105,51
FANJEAUX_SAPC_2018_11,FANJEAUX_SAPC,11136001,2.07,43.202,182,11
FAUGERES_2018_07,FAUGERES,7088001,4.136167,44.474667,430,7
FAYETLECHATEA_2018_63,FAYETLECHATEA,63157001,3.429167,45.696667,585,63
FAYLBILLOT_SAPC_2018_52,FAYLBILLOT_SAPC,52197003,5.615333,47.784333,347,52
FECLAZ_SAPC_2018_73,FECLAZ_SAPC,73098003,5.983667,45.647167,1328,73
FELINES_SAPC_2018_43,FELINES_SAPC,43093001,3.742833,45.265833,1014,43
FELON_SAPC_2018_90,FELON_SAPC,90044001,6.984167,47.704333,383,90
FERRIERELARCON_2018_37,FERRIERELARCON,37107001,0.875,46.9875,116,37
FEURS_2018_42,FEURS,42094003,4.233833,45.7385,347,42
FIGARI_2018_20,FIGARI,20114002,9.103667,41.505167,20,20
FIXSTGENEYS_2018_43,FIXSTGENEYS,43095001,3.665,45.145833,1102,43
FLAINE_SAPC_2018_74,FLAINE_SAPC,74014004,6.697167,46.002833,1611,74
FLERS_2018_61,FLERS,61169003,-0.5895,48.75,195,61
FONDETTES_2018_37,FONDETTES,37109001,0.604167,47.425333,93,37
FONTAINEBLEAU_SAPC_2018_77,FONTAINEBLEAU_SAPC,77186002,2.6785,48.406,84,77
FONTAINEGUERIN_2018_49,FONTAINEGUERIN,49138001,-0.167833,47.493167,41,49
FONTENAY_2018_85,FONTENAY,85092002,-0.813333,46.466667,14,85
FREJUS_2018_83,FREJUS,73157004,6.674167,45.193667,1228,73
FREJUS_MONT_VINAIGRE_2018_83,FREJUS_MONT_VINAIGRE,83061007,6.8155,43.502667,560,83
FRESNOYLARIVIERE_2018_60,FRESNOYLARIVIERE,60260001,2.918333,49.284833,61,60
FROTEY_SAPC_2018_70,FROTEY_SAPC,70261001,6.1965,47.639167,360,70
GALLARGUES_LE_MONTUEUX_2018_30,GALLARGUES_LE_MONTUEUX,30123001,4.171667,43.714833,17,30
GAP_2018_05,GAP,5061008,6.091667,44.568333,750,5
GATUZIERES_SAPC_2018_48,GATUZIERES_SAPC,48069001,3.499,44.195333,965,48
GENERARGUES_2018_30,GENERARGUES,30129001,3.977667,44.073333,139,30
GER_2018_64,GER,64238001,-0.083833,43.238333,410,64
GETS_LES_2018_74,GETS_LES,74134002,6.670333,46.158667,1172,74
GIRONVILLE_2018_77,GIRONVILLE,77207001,2.525,48.161667,98,77
GLUIRAS_RAD_2018_07,GLUIRAS_RAD,7096001,4.524,44.839333,760,7
GOURDON_2018_46,GOURDON,46127001,1.396667,44.745,260,46
GOUVILLE_2018_50,GOUVILLE,50215002,-1.606833,49.1075,7,50
GRANDCHAMP_SAPC_2018_89,GRANDCHAMP_SAPC,89192001,3.1895,47.7815,180,89
GRANDCOMBECHATELEU_SAPC_2018_25,GRANDCOMBECHATELEU_SAPC,25285001,6.567167,47.019167,769,25
GRAND_BORNAND_2018_74,GRAND_BORNAND,74136003,6.444667,45.970333,1300,74
GRENOBLE_LVD_2018_38,GRENOBLE_LVD,38538002,5.8485,45.217167,220,38
GROSPIERRES_SA_2018_07,GROSPIERRES_SA,7101002,4.295833,44.4115,107,7
GUERETST_LAURENT_2018_23,GUERETST_LAURENT,23206002,1.950333,46.1755,365,23
GUILLONVILLE_CA28_2018_28,GUILLONVILLE_CA28,28190001,1.666167,48.091333,132,28
GUIPY_SAPC_2018_58,GUIPY_SAPC,58132001,3.570333,47.212833,274,58
HOUDELAINCOURT_2018_55,HOUDELAINCOURT,55248001,5.5055,48.563,390,55
ISCHES_SAPC_2018_88,ISCHES_SAPC,88248001,5.8175,48.016667,342,88
ISSANLAS_2018_07,ISSANLAS,7105001,3.981667,44.773167,1215,7
ISSOIRE_2018_63,ISSOIRE,63178001,3.262333,45.535333,372,63
ISSOUDUN_SAPC_2018_36,ISSOUDUN_SAPC,36088005,2.0285,46.96,140,36
JALOGNY_SAPC_2018_71,JALOGNY_SAPC,71240001,4.651,46.402167,246,71
JARSY_SAPC_2018_73,JARSY_SAPC,73139001,6.176833,45.658833,832,73
JOURS_LES_BAIGNEUX_SAPC_2018_21,JOURS_LES_BAIGNEUX_SAPC,21326001,4.596333,47.636,392,21
JOYEUSE_2018_07,JOYEUSE,7110003,4.238333,44.48,160,7
KAPPELKINGER_SAPC_2018_57,KAPPELKINGER_SAPC,57357002,6.9035,48.978833,224,57
KERPERT_2018_22,KERPERT,22092001,-3.147667,48.404,281,22
KRUTH_SAPC_2018_68,KRUTH_SAPC,68171002,6.955,47.944167,512,68
LABECEDE_LAURAGAIS_SAPC_2018_11,LABECEDE_LAURAGAIS_SAPC,11181002,2.022167,43.3895,408,11
LACHAPELLEBOUEXIC_2018_35,LACHAPELLEBOUEXIC,35057003,-1.940833,47.9215,42,35
LAHAS_2018_32,LAHAS,32182001,0.887833,43.5475,251,32
LANNION_AERO_2018_22,LANNION_AERO,22113006,-3.468667,48.755333,85,22
LASSEUBE_SAPC_2018_64,LASSEUBE_SAPC,64324002,-0.4855,43.2045,247,64
LAUNOISSURVENCE_SAPC_2018_08,LAUNOISSURVENCE_SAPC,8248002,4.534667,49.671833,218,8
LAVALETRONNIER_2018_53,LAVALETRONNIER,53130008,-0.7465,48.030667,100,53
LA_BASTIDE_DES_JOURDANS_2018_84,LA_BASTIDE_DES_JOURDANS,84009002,5.615,43.787333,381,84
LA_BOISSAUDE_ROCHEJEAN_2018_25,LA_BOISSAUDE_ROCHEJEAN,25494001,6.322833,46.729,1222,25
LA_BRESSE_SAPC_2018_88,LA_BRESSE_SAPC,88075005,6.9415,48.007667,772,88
LA_CHAPELLESAINTOUEN_SAPC_2018_76,LA_CHAPELLESAINTOUEN_SAPC,76171001,1.439833,49.538167,197,76
LA_DESTROUSSE_SAPC_2018_13,LA_DESTROUSSE_SAPC,13031002,5.601,43.386667,201,13
LA_FAURIE_2018_05,LA_FAURIE,5055001,5.750167,44.566667,825,5
LA_GRAND_COMBE_2018_30,LA_GRAND_COMBE,30132002,4.023333,44.245,415,30
LA_LOUPE_SAPC_2018_28,LA_LOUPE_SAPC,28214003,1.013333,48.481,200,28
LA_MOTHE_ACHARD_2018_85,LA_MOTHE_ACHARD,85152001,-1.633167,46.620833,58,85
LA_MOTTE_DU_CAIRE_2018_04,LA_MOTTE_DU_CAIRE,4134002,6.0305,44.326667,665,4
LA_MOTTE_SERVOLEX_NOIRAY_2018_73,LA_MOTTE_SERVOLEX_NOIRAY,73179002,5.853667,45.609333,350,73
LA_MUREARGENS_2018_04,LA_MUREARGENS,4136001,6.520167,43.977,920,4
LA_NORMA_SAPC_2018_73,LA_NORMA_SAPC,73322001,6.7035,45.190667,1985,73
LA_PANOUSE_SAPC_2018_48,LA_PANOUSE_SAPC,48108001,3.589333,44.728667,1260,48
LA_ROCHE_SUR_YON_2018_85,LA_ROCHE_SUR_YON,85191003,-1.381833,46.705,88,85
LA_SALLE_PRUNET_2018_48,LA_SALLE_PRUNET,48186001,3.650667,44.315667,903,48
LA_SOUTERRAINE_2018_23,LA_SOUTERRAINE,23176001,1.451833,46.2425,370,23
LERE_2018_18,LERE,18125004,2.893167,47.457833,139,18
LESCHERAINES_2018_73,LESCHERAINES,73146001,6.108333,45.715167,591,73
LESRICEYSCIVC_2018_10,LESRICEYSCIVC,10317002,4.3305,47.981333,274,10
LESSE_SAPC_2018_57,LESSE_SAPC,57395001,6.508,48.965833,233,57
LES_CARROZ_2018_74,LES_CARROZ,74014002,6.644,46.024667,1151,74
LES_ECRINSNIVOSE_2018_38,LES_ECRINSNIVOSE,38375402,6.346167,44.936833,2970,38
LES_MARTYS_2018_11,LES_MARTYS,11221004,2.292333,43.4085,760,11
LES_MAYONS_SAPC_2018_83,LES_MAYONS_SAPC,83075001,6.358333,43.316833,147,83
LETOUQUET_2018_62,LETOUQUET,62826001,1.622833,50.5145,5,62
LEVIER_SAPC_2018_25,LEVIER_SAPC,25334001,6.124167,46.949333,713,25
LEZIGNANCORBIERES_2018_11,LEZIGNANCORBIERES,11203004,2.728833,43.173,60,11
LE_BLEYMARD_SAPC_2018_48,LE_BLEYMARD_SAPC,48027003,3.748167,44.4515,1418,48
LE_BOURGET_2018_95,LE_BOURGET,95088001,2.427667,48.967333,49,95
LE_BUISSON_2018_48,LE_BUISSON,48032002,3.221667,44.648333,1110,48
LE_CASTELLET_2018_83,LE_CASTELLET,83035001,5.784667,43.252167,417,83
LE_CASTELLET_SAPC_2018_83,LE_CASTELLET_SAPC,83035002,5.770167,43.184,66,83
LE_FIED_SAPC_2018_39,LE_FIED_SAPC,39225002,5.717333,46.768167,522,39
LE_GRANDBORNAND_2018_74,LE_GRANDBORNAND,74136005,6.471833,45.973333,1430,74
LE_HORPS_2018_53,LE_HORPS,53116003,-0.440833,48.405667,268,53
LE_LUC_2018_83,LE_LUC,83031001,6.386167,43.383167,80,83
LE_MASSEGROS_2018_48,LE_MASSEGROS,48094001,3.165667,44.295667,890,48
LE_MAS_2018_06,LE_MAS,6081001,6.809333,43.813667,1525,6
LE_MONTDORE_BG_2018_63,LE_MONTDORE_BG,63236002,2.807,45.5745,1050,63
LE_MONTDORE_SAPC_2018_63,LE_MONTDORE_SAPC,63236003,2.8125,45.551833,1220,63
LE_PALLET_SAPC_2018_44,LE_PALLET_SAPC,44117002,-1.336833,47.1415,35,44
LE_PERTHUS_2018_66,LE_PERTHUS,66137003,2.8595,42.473333,295,66
LE_PLESSIS_GASSOT_2018_95,LE_PLESSIS_GASSOT,95492001,2.406667,49.040333,108,95
LE_PUYLOUDES_2018_43,LE_PUYLOUDES,43062001,3.764,45.0745,833,43
LE_TECH_LA_LLAU_SAPC_2018_66,LE_TECH_LA_LLAU_SAPC,66206004,2.5125,42.439833,927,66
LE_TOUR_2018_74,LE_TOUR,74056003,6.946667,46.003333,1460,74
LE_VALDAJOL_2018_88,LE_VALDAJOL,88487003,6.462667,47.955167,544,88
LE_VIEUX_CERIER_SAPC_2018_16,LE_VIEUX_CERIER_SAPC,16403001,0.442,45.9675,162,16
LIGNEVILLE_2018_88,LIGNEVILLE,88271001,5.961167,48.160833,433,88
LIGRE_2018_37,LIGRE,37129002,0.273,47.112333,67,37
LILLELESQUIN_2018_59,LILLELESQUIN,59343001,3.0975,50.57,47,59
LIMERAY_2018_37,LIMERAY,37131002,1.011833,47.461167,113,37
LIMOGESBELLEGARDE_2018_87,LIMOGESBELLEGARDE,87085006,1.175,45.861167,402,87
LONS_LE_SAUNIER_2018_39,LONS_LE_SAUNIER,39362001,5.517667,46.692833,298,39
LOUBARESSE_2018_07,LOUBARESSE,15108001,3.211667,44.933333,710,15
LOUVIGNEDUDESERT_2018_35,LOUVIGNEDUDESERT,35162003,-1.129833,48.479333,153,35
LUNEGARDE_2018_46,LUNEGARDE,46181001,1.6895,44.6785,383,46
LYONBRON_2018_69,LYONBRON,69029001,4.949167,45.721333,202,69
LYONST_EXUPERY_2018_69,LYONST_EXUPERY,69299001,5.077833,45.7265,235,69
L_AIGLE_2018_61,L_AIGLE,61214002,0.662333,48.7585,232,61
L_OUDON_LIEURY_SAPC_2018_14,L_OUDON_LIEURY_SAPC,14624001,-0.009167,48.9895,52,14
MACON_2018_71,MACON,71270004,4.83,46.308333,216,71
MAGNANVILLE_2018_78,MAGNANVILLE,78354001,1.674167,48.963667,123,78
MAILLYCIVC_2018_51,MAILLYCIVC,51338001,4.116333,49.155333,182,51
MARCE_2018_49,MARCE,49188001,-0.317,47.561833,53,49
MARCILLAC_2018_19,MARCILLAC,19125001,2.039833,45.2835,598,19
MARIGNANE_2018_13,MARIGNANE,13054001,5.216,43.437667,9,13
MARSANNE_2018_26,MARSANNE,26176001,4.871667,44.643333,280,26
MARSAZ_2018_26,MARSAZ,26177001,4.938667,45.113167,213,26
MARSEILLE_2018_13,MARSEILLE,13055029,5.479167,43.310667,192,13
MARSILLARGUES_2018_34,MARSILLARGUES,34151003,4.178333,43.665,2,34
MARTIGNEBRIAND_2018_49,MARTIGNEBRIAND,49191001,-0.435833,47.2525,73,49
MARVILLE_SAPC_2018_28,MARVILLE_SAPC,28239002,1.371833,48.652667,153,28
MATOUR_SAPC_2018_71,MATOUR_SAPC,71289001,4.480333,46.304,415,71
MAULEON_SAPC_2018_79,MAULEON_SAPC,79079013,-0.757833,46.928833,150,79
MAURON_2018_56,MAURON,56127001,-2.285667,48.065667,74,56
MAUROUX_2018_32,MAUROUX,32248001,0.824833,43.906833,201,32
MAZETVOLAMONT_2018_43,MAZETVOLAMONT,43130002,4.239833,45.025,1130,43
MEAILLES_SAPC_2018_04,MEAILLES_SAPC,4115001,6.6295,44.031167,1090,4
MENDE_2018_48,MENDE,48095003,3.498333,44.518333,709,48
MENTON_2018_06,MENTON,6083005,7.488667,43.785833,216,6
MEOUNES_LES_MONTRIEUX_SAPC_2018_83,MEOUNES_LES_MONTRIEUX_SAPC,83077001,5.964833,43.258,309,83
MERDRIGNAC_2018_22,MERDRIGNAC,22147005,-2.408333,48.191667,135,22
METZROBERT_SAPC_2018_10,METZROBERT_SAPC,10241001,4.101167,48.0745,140,10
MEYMAC_2018_19,MEYMAC,19136001,2.145,45.536667,710,19
MEYTHET_2018_74,MEYTHET,74182001,6.094,45.928167,455,74
MIERMAIGNE_2018_28,MIERMAIGNE,28252002,0.99,48.253,267,28
MILLAU_2018_12,MILLAU,12145001,3.0195,44.1185,712,12
MIMET_2018_13,MIMET,13062002,5.499667,43.4185,416,13
MIRECOURTINRAE_2018_88,MIRECOURTINRAE,88304006,6.123333,48.301667,289,88
MOLESMES_SAPC_2018_89,MOLESMES_SAPC,89260001,3.463833,47.610333,355,89
MOLLANSSOUVEZ_2018_26,MOLLANSSOUVEZ,26188001,5.183167,44.234167,280,26
MONISTROLSURLOIRE_2018_43,MONISTROLSURLOIRE,43137003,4.231167,45.314,777,43
MONTAUBAN_2018_82,MONTAUBAN,82121002,1.376667,44.028,106,82
MONTAUT_2018_09,MONTAUT,40191001,-0.656667,43.743333,120,40
MONTBARD_SAPC_2018_21,MONTBARD_SAPC,21425001,4.3305,47.6285,209,21
MONTBELLAYINRAE_2018_49,MONTBELLAYINRAE,49215002,-0.1415,47.13,58,49
MONTBEUGNY_2018_03,MONTBEUGNY,3180001,3.423167,46.536333,275,3
MONTCLAR_SAPC_2018_04,MONTCLAR_SAPC,4126001,6.333333,44.391833,1197,4
MONTDARDIER_2018_30,MONTDARDIER,30176002,3.58,43.947,640,30
MONTDEMARSAN_2018_40,MONTDEMARSAN,40192003,-0.5,43.89,39,40
MONTEMBOEUF_2018_16,MONTEMBOEUF,16225001,0.543,45.787167,247,16
MONTFORTSURARGENS_SAPC_2018_83,MONTFORTSURARGENS_SAPC,83083001,6.127,43.469667,141,83
MONTGIVRAY_2018_36,MONTGIVRAY,36127002,1.974,46.610167,204,36
MONTLIEU_SAPC_2018_17,MONTLIEU_SAPC,17243002,-0.291833,45.220167,89,17
MONTOURTIER_SAPC_2018_53,MONTOURTIER_SAPC,53159002,-0.538667,48.209833,107,53
MONTREDONLABESSONNIE_2018_81,MONTREDONLABESSONNIE,81182004,2.3555,43.725,566,81
MONTSEGURSLAU_2018_26,MONTSEGURSLAU,26211001,4.860833,44.3615,146,26
MONT_AIGOUAL_2018_30,MONT_AIGOUAL,30339001,3.5815,44.121333,1567,30
MOUCHAMPS_SAPC_2018_85,MOUCHAMPS_SAPC,85153002,-1.053333,46.768333,82,85
MOUROUX_SAPC_2018_77,MOUROUX_SAPC,77320002,3.057,48.847167,148,77
MUIDS_2018_27,MUIDS,27422001,1.2805,49.224167,31,27
MURETLHERM_2018_31,MURETLHERM,31299001,1.262,43.4515,189,31
MURVIEL_LES_BEZIERS_2018_34,MURVIEL_LES_BEZIERS,34178001,3.146,43.476,140,34
NANCYESSEY_2018_54,NANCYESSEY,54526001,6.2215,48.687833,212,54
NANTESBOUGUENAIS_2018_44,NANTESBOUGUENAIS,44020001,-1.608833,47.15,26,44
NANTIAT_2018_87,NANTIAT,87103002,1.180667,46.004667,335,87
NEUILLYLEVEQUE_SAPC_2018_52,NEUILLYLEVEQUE_SAPC,52348003,5.435833,47.918,353,52
NICERIMIEZ_2018_06,NICERIMIEZ,6088007,7.279167,43.738667,238,6
NITTING_SAPC_2018_57,NITTING_SAPC,57509002,7.031,48.667833,266,57
NOIRMOUTIER_EN_2018_85,NOIRMOUTIER_EN,85163001,-2.257167,47.004667,3,85
NOYERS_SAPC_2018_89,NOYERS_SAPC,89279002,3.949,47.682833,266,89
NYONS_P182_2018_26,NYONS_P182,26220010,5.1155,44.359167,316,26
OLETTA_2018_20,OLETTA,20185003,9.3205,42.632333,75,20
OLORON_2018_64,OLORON,64422007,-0.5795,43.1595,295,64
ORANGE_2018_84,ORANGE,84087001,4.861,44.1445,57,84
ORGNAC_AVEN_2018_07,ORGNAC_AVEN,7168001,4.421667,44.288333,230,7
ORLY_2018_91,ORLY,91027002,2.397,48.718,86,91
ORVAL_RAD_2018_18,ORVAL_RAD,18172003,2.467333,46.731,165,18
OUZOUER_2018_41,OUZOUER,41173001,1.526667,47.91,132,41
PAGNYLECHATEAU_2018_21,PAGNYLECHATEAU,21131001,5.190667,47.043167,182,21
PARISMONTSOURISDOUBLE_2018_75,PARISMONTSOURISDOUBLE,75114007,2.337833,48.821667,75,75
PARISMONTSOURIS_2018_75,PARISMONTSOURIS,75114001,2.337833,48.821667,75,75
PARTHENAY_SAPC_2018_79,PARTHENAY_SAPC,79202003,-0.261,46.636833,159,79
PAUUZEIN_2018_64,PAUUZEIN,64549001,-0.416333,43.385,183,64
PEAUGRES_RAD_2018_07,PEAUGRES_RAD,7172002,4.705833,45.286167,480,7
PEIRA_CAVA_2018_06,PEIRA_CAVA,6077006,7.363333,43.929167,1443,6
PEISEY_NANCROIX_2018_73,PEISEY_NANCROIX,73197001,6.7565,45.544,1350,73
PEONE_2018_06,PEONE,6094002,6.930833,44.099667,1784,6
PERI_SAPC_2018_20,PERI_SAPC,20209003,8.905667,42.003167,433,20
PEYRELEVADE_2018_19,PEYRELEVADE,19164001,2.058667,45.701,827,19
PEZENASTOURBES_2018_34,PEZENASTOURBES,34311001,3.400333,43.437667,40,34
PIERREBUFFIERE_2018_87,PIERREBUFFIERE,87119002,1.358333,45.696667,253,87
PIN_AU_HARASINRAE_2018_61,PIN_AU_HARASINRAE,61328001,0.180833,48.725,202,61
PIPAY_SAPC_2018_38,PIPAY_SAPC,38504002,6.016,45.265333,1578,38
PLAUZAT_SAPC_2018_63,PLAUZAT_SAPC,63282001,3.133667,45.632333,503,63
PLOUMANACH_2018_22,PLOUMANACH,22168001,-3.473167,48.825833,55,22
POMMERITJAUDY_2018_22,POMMERITJAUDY,22247001,-3.245,48.741667,50,22
PONTORSON_2018_50,PONTORSON,50410002,-1.503333,48.576667,10,50
PORQUEROLLES_2018_83,PORQUEROLLES,83069002,6.226833,43.0,135,83
POUANCE_SAPC_2018_49,POUANCE_SAPC,49248003,-1.188333,47.74,96,49
POUGNEHERISSON_SAPC_2018_79,POUGNEHERISSON_SAPC,79215001,-0.401833,46.6605,196,79
POUILLY_EN_AUX_SAPC_2018_21,POUILLY_EN_AUX_SAPC,21501003,4.561,47.251333,412,21
POUZAUGES_SA_2018_85,POUZAUGES_SA,85182004,-0.830833,46.766,153,85
PRADES_LE_LEZ_2018_34,PRADES_LE_LEZ,34217001,3.866667,43.718333,69,34
PRADINAS_SAPC_2018_12,PRADINAS_SAPC,12189001,2.255833,44.242167,564,12
PRALOGNAN_LA_VANOISE_2018_73,PRALOGNAN_LA_VANOISE,73206001,6.716667,45.386,1420,73
PREMERY_2018_58,PREMERY,58218005,3.33,47.171667,238,58
PRESTEVROULT_2018_28,PRESTEVROULT,28305001,1.4675,48.181333,129,28
PRINDEYRANCON_SAPC_2018_79,PRINDEYRANCON_SAPC,79220002,-0.668667,46.231,8,79
PUJAUT_2018_30,PUJAUT,30209001,4.775,44.005,110,30
PUYMERAS_2018_84,PUYMERAS,84094001,5.131333,44.2895,392,84
QUENZA_2018_20,QUENZA,20254006,9.142833,41.777667,932,20
QUIMPER_2018_29,QUIMPER,29232002,-4.108333,47.995,60,29
QUINTENIC_2018_22,QUINTENIC,22261002,-2.42,48.519167,71,22
REGUSSE_2018_83,REGUSSE,83102001,6.128333,43.655,525,83
REIGNAC_2018_37,REIGNAC,37192001,0.899,47.219333,90,37
REIMSPRUNAY_2018_51,REIMSPRUNAY,51449002,4.155333,49.209833,95,51
RENNESST_JACQUES_2018_35,RENNESST_JACQUES,35281001,-1.734,48.068833,36,35
RESTEFONDNIVOSE_2018_04,RESTEFONDNIVOSE,4096401,6.8,44.34,2550,4
RIONDESLANDES_2018_40,RIONDESLANDES,40243001,-0.950833,43.916333,77,40
ROCHEFORTSAMSON_SAPC_2018_26,ROCHEFORTSAMSON_SAPC,26273002,5.165167,44.990667,368,26
RODEZAVEYRON_2018_12,RODEZAVEYRON,12254001,2.4825,44.410333,578,12
ROISSY_2018_95,ROISSY,95527001,2.534333,49.015167,108,95
ROLLAINVILLE_2018_88,ROLLAINVILLE,88393003,5.716667,48.359167,372,88
ROMANS_SAPC_2018_26,ROMANS_SAPC,26281001,4.998667,45.050167,156,26
ROSANS_2018_05,ROSANS,5126001,5.462167,44.3875,625,5
ROSNAY_2018_36,ROSNAY,36173002,1.249833,46.703,109,36
ROSTRENEN_2018_22,ROSTRENEN,22266001,-3.295333,48.226667,236,22
ROUENBOOS_2018_76,ROUENBOOS,76116001,1.178333,49.3895,156,76
ROUESSEVASSE_2018_72,ROUESSEVASSE,72255001,-0.225667,48.139333,206,72
ROUJANINRAE_2018_34,ROUJANINRAE,34237001,3.321333,43.491667,73,34
ROUSSES_SAPC_2018_48,ROUSSES_SAPC,48130002,3.5845,44.206833,812,48
RUSIO_SAPC_2018_20,RUSIO_SAPC,20264002,9.2645,42.364167,860,20
SABLE_SUR_SARTH_2018_72,SABLE_SUR_SARTH,72264001,-0.302667,47.840167,41,72
SAINTES_2018_17,SAINTES,17415003,-0.652,45.761167,38,17
SAINTE_GEMME_LA_PLAINE_SAPC_2018_85,SAINTE_GEMME_LA_PLAINE_SAPC,85216001,-1.121333,46.440167,3,85
SAINTGOAZEC_2018_29,SAINTGOAZEC,29249002,-3.730833,48.144667,260,29
SAINTHILAIRE_SAPC_2018_38,SAINTHILAIRE_SAPC,38395004,5.884833,45.315,990,38
SAINTLOUPSURAUJON_SAPC_2018_52,SAINTLOUPSURAUJON_SAPC,52450002,5.092167,47.895,310,52
SAINTLOUP_SAPC_2018_23,SAINTLOUP_SAPC,23209001,2.2645,46.140667,440,23
SAINTMAIXENTLECOLE_SAPC_2018_79,SAINTMAIXENTLECOLE_SAPC,79270003,-0.210333,46.417,83,79
SAINT_AVIT_SAPC_2018_63,SAINT_AVIT_SAPC,63320001,2.5265,45.872833,724,63
SAINT_GERMAIN_SAPC_2018_72,SAINT_GERMAIN_SAPC,72284001,0.093,48.301333,85,72
SAINT_MARTIN_VESUBIE_SAPC_2018_06,SAINT_MARTIN_VESUBIE_SAPC,6127006,7.255,44.065667,899,6
SAINT_PRIVE_2018_89,SAINT_PRIVE,89365001,2.985333,47.658,198,89
SANTO_PIETRO_DI_TENDA_2018_20,SANTO_PIETRO_DI_TENDA,20314006,9.200667,42.635833,484,20
SARI_DORCINO_2018_20,SARI_DORCINO,20270001,8.802333,42.0785,407,20
SARZEAU_SA_2018_56,SARZEAU_SA,56240003,-2.796,47.510667,35,56
SAULGOND_SAPC_2018_16,SAULGOND_SAPC,16363001,0.781667,45.956333,228,16
SAULIEU_2018_21,SAULIEU,21584001,4.215,47.264167,586,21
SAVIGNY_LES_BEA_2018_21,SAVIGNY_LES_BEA,21590001,4.836667,47.056333,246,21
SAVIGNY_VERON_2018_37,SAVIGNY_VERON,37242002,0.149333,47.227,33,37
SEDERON_2018_26,SEDERON,26340001,5.538833,44.202333,804,26
SEGONZAC_SAPC_2018_16,SEGONZAC_SAPC,16366001,-0.2235,45.6145,62,16
SEGRE_SAPC_2018_49,SEGRE_SAPC,49331003,-0.873333,47.679167,25,49
SEILLANS_2018_83,SEILLANS,83124002,6.622167,43.580167,278,83
SEMUR_EN_AUXOIS_SAPC_2018_21,SEMUR_EN_AUXOIS_SAPC,21603001,4.34,47.482,314,21
SERRALONGUE_2018_66,SERRALONGUE,66194002,2.557833,42.399833,700,66
SERVOZ_2018_74,SERVOZ,74266001,6.767333,45.931167,815,74
SISTERON_2018_04,SISTERON,4209005,5.916,44.2245,500,4
SIZUN_2018_29,SIZUN,29277001,-4.0205,48.391333,157,29
SOLENZARA_2018_20,SOLENZARA,20342001,9.400833,41.921833,12,20
SOSPEL_2018_06,SOSPEL,6136005,7.433667,43.862833,843,6
SOULAINES_2018_10,SOULAINES,10372001,4.671333,48.399333,138,10
SOURS_SAPC_2018_28,SOURS_SAPC,28380003,1.555167,48.406333,147,28
STAGREVE_RAD_2018_07,STAGREVE_RAD,7204008,4.368,44.997833,1014,7
STALBAN_DES_HURTIERES_2018_73,STALBAN_DES_HURTIERES,73220001,6.271333,45.477167,610,73
STAUBAN_2018_26,STAUBAN,26292002,5.409833,44.294833,625,26
STBONNETLECHATEAU_SAPC_2018_42,STBONNETLECHATEAU_SAPC,42204002,4.072,45.436167,822,42
STCHRISTOPHEL_SAPC_2018_26,STCHRISTOPHEL_SAPC,26298001,5.071833,45.229333,452,26
STCHRISTOPHESURNAIS_2018_37,STCHRISTOPHESURNAIS,37213003,0.464333,47.6155,107,37
STEPAIN_2018_37,STEPAIN,37216002,0.604833,47.157167,112,37
STETIENNEVALLEEFRANCAISE_2018_48,STETIENNEVALLEEFRANCAISE,48148004,3.854167,44.165833,518,48
STETIENNE_LUGDARES_2018_07,STETIENNE_LUGDARES,7232001,3.9485,44.651333,1022,7
STE_MARIE_CUINES_2018_73,STE_MARIE_CUINES,73255003,6.307167,45.3435,460,73
STGERMAINL_HE_2018_63,STGERMAINL_HE,63353003,3.532667,45.461,1070,63
STGERVAISD_AU_2018_63,STGERVAISD_AU,63354004,2.803833,46.032667,705,63
STHILAIREDUH_2018_50,STHILAIREDUH,50484002,-1.096667,48.563667,95,50
STJEANENROYA_2018_26,STJEANENROYA,26307001,5.2925,45.009167,308,26
STLAURENT_PREEINRAE_2018_17,STLAURENT_PREEINRAE,17353001,-1.027,45.988333,3,17
STMARCELLESVINRAE_2018_26,STMARCELLESVINRAE,26313001,4.931333,44.980167,190,26
STMARCEL_ANNONAY_2018_07,STMARCEL_ANNONAY,7265001,4.642,45.296,494,7
STMARDS_2018_10,STMARDS,10350001,3.789,48.169833,227,10
STMARTINDUM_2018_21,STMARTINDUM,21561003,4.781167,47.4005,578,21
STMARTIN_DE_BELLEVILLE_2018_73,STMARTIN_DE_BELLEVILLE,73257001,6.5105,45.368167,1443,73
STMAURICELESCOUCHES_SAPC_2018_71,STMAURICELESCOUCHES_SAPC,71464001,4.594833,46.881833,300,71
STMAUR_2018_94,STMAUR,94068001,2.492333,48.808667,48,94
STMICHEL_DE_MAURIENNE_LE_THYL_2018_73,STMICHEL_DE_MAURIENNE_LE_THYL,73261001,6.490833,45.223667,1345,73
STNAZAIRELED_2018_26,STNAZAIRELED,26321003,5.284833,44.5545,607,26
STNICOLASDEBOURGUEIL_2018_37,STNICOLASDEBOURGUEIL,37228001,0.107833,47.29,44,37
STNICOLAS_2018_03,STNICOLAS,82169001,1.026667,44.055,82,82
STPIERRESTJEAN_2018_07,STPIERRESTJEAN,7284001,4.108333,44.456667,650,7
STPIERREVILLE_2018_07,STPIERREVILLE,7286002,4.485,44.814333,560,7
STSAUVEUR_SA_2018_07,STSAUVEUR_SA,7294001,4.26,44.296,149,7
STSEGAL_S_A_2018_29,STSEGAL_S_A,29263002,-4.09,48.225833,89,29
STSULPICE_2018_63,STSULPICE,91578001,2.178333,48.541667,76,91
ST_ANDRE_2018_89,ST_ANDRE,58229001,3.845,47.398333,275,58
ST_ANDRE_DE_SANGONIS_2018_34,ST_ANDRE_DE_SANGONIS,34239002,3.507833,43.664167,86,34
ST_AUPRE_SAPC_2018_38,ST_AUPRE_SAPC,38362001,5.657333,45.392667,450,38
ST_BENOIT_2018_11,ST_BENOIT,11333001,2.0455,43.004,601,11
ST_BRIEUC_2018_22,ST_BRIEUC,22372001,-2.852,48.534667,135,22
ST_CEZAIRE_SUR_SIAGNE_2018_06,ST_CEZAIRE_SUR_SIAGNE,6118002,6.809,43.678667,694,6
ST_CHRISTOL_2018_84,ST_CHRISTOL,84107002,5.492833,44.040667,836,84
ST_COLOMBAN_DES_VILLARDS_2018_73,ST_COLOMBAN_DES_VILLARDS,73230002,6.231167,45.293,1085,73
ST_CREPIN_2018_05,ST_CREPIN,24392001,1.276667,44.958333,270,24
ST_ETIENNE_DE_TINEE_SAPC_2018_06,ST_ETIENNE_DE_TINEE_SAPC,6120004,6.921167,44.257667,1150,6
ST_GATIEN_DES_B_2018_14,ST_GATIEN_DES_B,14578001,0.167,49.3645,139,14
ST_GERMAIN_DE_LUSIGNAN_2018_17,ST_GERMAIN_DE_LUSIGNAN,17339002,-0.409667,45.458333,71,17
ST_HILAIRENIVOSE_2018_38,ST_HILAIRENIVOSE,38395403,5.8635,45.313833,1756,38
ST_JEANSTNICOLAS_2018_05,ST_JEANSTNICOLAS,5145002,6.209833,44.670833,1210,5
ST_JEAN_DARVES_SAPC_2018_73,ST_JEAN_DARVES_SAPC,73242003,6.278833,45.206833,1573,73
ST_JEAN_DE_MINERVOIS_2018_34,ST_JEAN_DE_MINERVOIS,34269001,2.857667,43.385667,258,34
ST_JEAN_DU_GARD_2018_30,ST_JEAN_DU_GARD,30269006,3.872,44.1105,196,30
ST_JULIEN_DE_PEYROLAS_2018_30,ST_JULIEN_DE_PEYROLAS,30273001,4.579333,44.277,71,30
ST_JUNIEN_2018_87,ST_JUNIEN,87154003,0.917,45.900833,271,87
ST_LEGER_LA_MONTAGNE_SAPC_2018_87,ST_LEGER_LA_MONTAGNE_SAPC,87159002,1.459667,46.035333,664,87
ST_MARTIAL_VIVEYROLS_2018_24,ST_MARTIAL_VIVEYROLS,24452001,0.319333,45.357833,166,24
ST_MARTIN_DE_LONDRES_2018_34,ST_MARTIN_DE_LONDRES,34274001,3.729333,43.7795,214,34
ST_MAXIMIN_LA_STE_BAUME_2018_83,ST_MAXIMIN_LA_STE_BAUME,83116022,5.847833,43.4775,294,83
ST_MICHEL_MAUR_SAPC_2018_73,ST_MICHEL_MAUR_SAPC,73261003,6.4645,45.218167,698,73
ST_M_HINX_STNAINRAE_2018_40,ST_M_HINX_STNAINRAE,40272002,-1.299333,43.570833,37,40
ST_NAZAIREMONTOIR_2018_44,ST_NAZAIREMONTOIR,44103001,-2.1545,47.313833,3,44
ST_OUENLESPAREY_SAPC_2018_88,ST_OUENLESPAREY_SAPC,88430001,5.7745,48.188833,329,88
ST_PAUL_DE_FENOUILLET_2018_66,ST_PAUL_DE_FENOUILLET,66187006,2.485333,42.8205,300,66
ST_PIERREDESTRIPIERS_2018_48,ST_PIERREDESTRIPIERS,48176002,3.3035,44.2465,929,48
ST_QUENTIN_2018_02,ST_QUENTIN,2320001,3.206,49.818333,98,2
ST_SIGISMOND_2018_74,ST_SIGISMOND,74252001,6.612167,46.076333,1020,74
ST_SULPICE_DE_POMMIERS_2018_33,ST_SULPICE_DE_POMMIERS,33482001,-0.12,44.683833,82,33
ST_THIERRYCIVC_2018_51,ST_THIERRYCIVC,51518001,3.960667,49.300833,135,51
ST_WITZ_2018_95,ST_WITZ,95580001,2.550667,49.085667,141,95
ST_YAN_2018_71,ST_YAN,71491001,4.0165,46.408333,242,71
ST_YRIEIX_LA_PE_2018_87,ST_YRIEIX_LA_PE,87187003,1.243833,45.513667,404,87
SUBLAINES_2018_37,SUBLAINES,37253001,0.993167,47.265,111,37
SURIN_SAPC_2018_79,SURIN_SAPC,79320002,-0.460333,46.459667,100,79
TARASCON_2018_13,TARASCON,13108002,4.666667,43.805,102,13
TARGASONNE_2018_66,TARGASONNE,66202001,1.973333,42.504,1600,66
TAURINYA_2018_66,TAURINYA,66204002,2.4105,42.580333,770,66
TENDE_SAPC_2018_06,TENDE_SAPC,6163007,7.586,44.043167,636,6
THENON_2018_24,THENON,24550003,1.0385,45.112667,265,24
THONONINRAE_2018_74,THONONINRAE,74281001,6.455,46.366667,376,74
THOREY_SOUS_CHARNY_SAPC_2018_21,THOREY_SOUS_CHARNY_SAPC,21633002,4.4395,47.319167,421,21
TICHEVILLE_SAPC_2018_61,TICHEVILLE_SAPC,61485002,0.245,48.913,225,61
TILCHATEL_SAPC_2018_21,TILCHATEL_SAPC,21638002,5.2075,47.544833,283,21
TOLLA_SAPC_2018_20,TOLLA_SAPC,20326001,8.959167,41.9635,698,20
TONNERRE_JOUDRE_2018_89,TONNERRE_JOUDRE,89418007,3.995,47.868167,200,89
TORCY_2018_71,TORCY,71540001,4.466667,46.766667,322,71
TORTEZAIS_SAPC_2018_03,TORTEZAIS_SAPC,3285001,2.857,46.451333,256,3
TOULON_2018_83,TOULON,83137001,5.900667,43.115833,3,83
TOULOUSEBLAGNAC_2018_31,TOULOUSEBLAGNAC,31069001,1.378833,43.621,151,31
TOURS_2018_37,TOURS,37179001,0.727333,47.4445,108,37
TOUR_EIFFEL_2018_75,TOUR_EIFFEL,75107005,2.2945,48.858333,330,75
TOUSSUS_LE_NOBLE_2018_78,TOUSSUS_LE_NOBLE,78620001,2.1135,48.750667,154,78
TRAPPES_2018_78,TRAPPES,78621001,2.009833,48.774333,167,78
TRESSON_SAPC_2018_72,TRESSON_SAPC,72361001,0.5595,47.885333,154,72
TRETS_2018_13,TRETS,13110003,5.698667,43.445333,264,13
TROYESBARBEREY_2018_10,TROYESBARBEREY,10030001,4.02,48.324667,112,10
TUSSON_2018_16,TUSSON,16390001,0.062167,45.949,88,16
UGINE_2018_73,UGINE,73303001,6.418333,45.75,425,73
UZERCHE_2018_19,UZERCHE,19276006,1.568167,45.396333,422,19
VACHERESSE_2018_74,VACHERESSE,74286001,6.669833,46.316333,790,74
VAGNEY_2018_88,VAGNEY,88486003,6.750333,48.042333,805,88
VALDROME_2018_26,VALDROME,26361001,5.576667,44.505333,786,26
VALENSOLE_2018_04,VALENSOLE,4230002,5.986667,43.843333,545,4
VALLORCINE_PLANDROIT_2018_74,VALLORCINE_PLANDROIT,74290002,6.919167,46.0205,1326,74
VALOGNES_2018_50,VALOGNES,50615001,-1.506667,49.517667,61,50
VALSLESBAINS_2018_07,VALSLESBAINS,7331001,4.360667,44.6695,283,7
VARENNESSTSA_2018_71,VARENNESSTSA,71558001,5.255333,46.529333,207,71
VARZY_SAPC_2018_58,VARZY_SAPC,58304005,3.386,47.368333,226,58
VATRYAERO_2018_51,VATRYAERO,51595002,4.164667,48.777167,179,51
VAUJANY_2018_38,VAUJANY,38527002,6.076667,45.156667,1520,38
VERRENS_ARVEY_2018_73,VERRENS_ARVEY,73312001,6.3165,45.658667,530,73
VERTUSCIVC_2018_51,VERTUSCIVC,51612003,3.995333,48.9025,150,51
VERT_TOULONCIVC_2018_51,VERT_TOULONCIVC,51611001,3.906,48.84,155,51
VICHYCHARMEIL_2018_03,VICHYCHARMEIL,3060001,3.398667,46.166667,249,3
VICHYVILLE_2018_03,VICHYVILLE,3310001,3.439,46.117667,255,3
VIC_LE_FESQ_2018_30,VIC_LE_FESQ,30349001,4.072167,43.870833,45,30
VILLARDEBELLE_SAPC_2018_11,VILLARDEBELLE_SAPC,11412001,2.4005,43.014833,593,11
VILLAR_ST_PANCRACE_2018_05,VILLAR_ST_PANCRACE,5183001,6.640333,44.880333,1310,5
VILLENAVE_DORNONINRAE_2018_33,VILLENAVE_DORNONINRAE,33550001,-0.576667,44.79,25,33
VILLENEUVELESMAGINRAE_2018_34,VILLENEUVELESMAGINRAE,34337001,3.853833,43.538167,20,34
VILLETTE_2018_54,VILLETTE,75119002,2.336667,48.868333,57,75
VILLEVIEILLE_2018_30,VILLEVIEILLE,30352002,4.090833,43.795167,41,30
VILLIERSLEBACLE2_2018_91,VILLIERSLEBACLE2,91679002,2.116167,48.735333,161,91
VISAN_2018_84,VISAN,84150001,4.9055,44.336667,141,84
VIVARIO_SAPC_2018_20,VIVARIO_SAPC,20354008,9.149167,42.152667,773,20
VIVES_2018_66,VIVES,66233001,2.760833,42.5365,261,66
VOULTON_SAPC_2018_77,VOULTON_SAPC,77530001,3.350333,48.612667,175,77
WANGENBOURG_SAPC_2018_67,WANGENBOURG_SAPC,67122001,7.307,48.6425,460,67
YZEURE_2018_03,YZEURE,3321001,3.352833,46.579167,242,3
