nom_fichier,station,id,longitude,latitude,altitude,departement
ABAINVILLE_2008_55,ABAINVILLE,55001001.0,5.498667,48.528,298.0,55.0
ABBEVILLE_2008_80,ABBEVILLE,80001005.0,1.835,50.106667,68.0,80.0
ACHERES_2008_78,ACHERES,78005002.0,2.126,48.983167,31.0,78.0
AGENLA_GARENNE_2008_47,AGENLA_GARENNE,47091001.0,0.594667,44.172167,58.0,47.0
AHUN_LYCEE_2008_23,AHUN_LYCEE,23001001.0,2.029833,46.093333,460.0,23.0
AIGUESMORTES_2008_30,AIGUESMORTES,30003001.0,4.207,43.537167,1.0,30.0
AIGUINES_SAPC_2008_83,AIGUINES_SAPC,83002004.0,6.244833,43.7945,563.0,83.0
AILLEVILLE_SAPC_2008_10,AILLEVILLE_SAPC,10002001.0,4.685667,48.254167,195.0,10.0
AIXLES_MILLES_2008_13,AIXLES_MILLES,13001006.0,5.365667,43.504667,106.0,13.0
AJACCIO_2008_20,AJACCIO,20004002.0,8.792667,41.918,5.0,20.0
ALBERTVILLE_JO_2008_73,ALBERTVILLE_JO,73011004.0,6.371833,45.662333,332.0,73.0
ALBI_2008_81,ALBI,81004006.0,2.141667,43.928333,170.0,81.0
ALENCON_2008_61,ALENCON,61001001.0,0.110167,48.4455,143.0,61.0
ALTIER_2008_48,ALTIER,48004001.0,3.852,44.494,900.0,48.0
ALZON_2008_30,ALZON,30009001.0,3.444,43.979,611.0,30.0
AMBERIEU_2008_01,AMBERIEU,1089001.0,5.329333,45.9765,250.0,1.0
AMBERT_2008_63,AMBERT,63003004.0,3.742667,45.516833,555.0,63.0
AMBOISE_LYCEE_2008_37,AMBOISE_LYCEE,37003004.0,0.977,47.394167,116.0,37.0
AMIENSGLISY_2008_80,AMIENSGLISY,80379002.0,2.3825,49.872,60.0,80.0
AMILLY_2008_45,AMILLY,45004001.0,2.728,47.962167,91.0,45.0
ANLEZY_2008_58,ANLEZY,58006001.0,3.507833,46.9575,220.0,58.0
APT_2008_84,APT,84003003.0,5.381833,43.892,222.0,84.0
ARBENT_2008_01,ARBENT,1014001.0,5.65,46.266667,535.0,1.0
ARBRISSEL_2008_35,ARBRISSEL,35005001.0,-1.297333,47.927333,75.0,35.0
ARGENTAT_2008_19,ARGENTAT,19010001.0,1.9375,45.101333,190.0,19.0
ARGENTON_2008_36,ARGENTON,36006001.0,1.518333,46.586667,108.0,36.0
ARLESMASREY_2008_13,ARLESMASREY,13004017.0,4.568333,43.693333,10.0,13.0
ARLES_2008_13,ARLES,13004003.0,4.693833,43.51,1.0,13.0
ARNAY_SAPC_2008_21,ARNAY_SAPC,21567001.0,4.498667,47.124833,396.0,21.0
ARQUETTESENVAL_2008_11,ARQUETTESENVAL,11016003.0,2.503333,43.100833,240.0,11.0
ARVIEUX_2008_05,ARVIEUX,5007003.0,6.728,44.796,1825.0,5.0
ARZAL_2008_56,ARZAL,56004001.0,-2.382667,47.512667,26.0,56.0
ASCROS_2008_06,ASCROS,6005001.0,7.013667,43.922,1173.0,6.0
AUBIGNYSURNERE_2008_18,AUBIGNYSURNERE,18015003.0,2.427333,47.4995,176.0,18.0
AUBUSSON_SAPC_2008_23,AUBUSSON_SAPC,23008004.0,2.187833,45.957833,486.0,23.0
AUCH_2008_32,AUCH,32013005.0,0.601167,43.689,122.0,32.0
AUPS_2008_83,AUPS,83007004.0,6.1875,43.641,497.0,83.0
AURILLAC_2008_15,AURILLAC,15014004.0,2.419167,44.8915,632.0,15.0
AUTUN_2008_71,AUTUN,71014003.0,4.301667,46.951667,360.0,71.0
AUXERRE_2008_89,AUXERRE,89346001.0,3.5455,47.8015,207.0,89.0
AVIGNON_2008_84,AVIGNON,84007005.0,4.9025,43.911333,34.0,84.0
AVORD_2008_18,AVORD,18092001.0,2.642167,47.052167,175.0,18.0
BAIGNES_BEL_AIR_2008_16,BAIGNES_BEL_AIR,16025003.0,-0.2695,45.378333,70.0,16.0
BALEMULHOUSE_2008_68,BALEMULHOUSE,68297001.0,7.51,47.614333,263.0,68.0
BANDESAPT_2008_88,BANDESAPT,88033002.0,6.991833,48.345833,590.0,88.0
BASTIA_2008_20,BASTIA,20148001.0,9.485167,42.540667,10.0,20.0
BAZUSAURE_2008_65,BAZUSAURE,65075001.0,0.3485,42.857833,767.0,65.0
BEAUBERY_2008_71,BEAUBERY,71025001.0,4.400167,46.406,465.0,71.0
BEAUCOUZE_2008_49,BEAUCOUZE,49020001.0,-0.614333,47.479,50.0,49.0
BEAUFORTSGERV_2008_26,BEAUFORTSGERV,26035001.0,5.139,44.778,379.0,26.0
BEAUMONT_DU_LAC_2008_87,BEAUMONT_DU_LAC,87009003.0,1.863167,45.8015,670.0,87.0
BEAUMONT_SAPC_2008_37,BEAUMONT_SAPC,37023002.0,1.211667,47.177167,126.0,37.0
BELCAIRE_2008_11,BELCAIRE,11028001.0,1.968167,42.8195,980.0,11.0
BELFORT_2008_90,BELFORT,90010001.0,6.876,47.629333,422.0,90.0
BELLEGARDEEND_2008_26,BELLEGARDEEND,26047001.0,5.454333,44.535167,1017.0,26.0
BELLEGARDE_2008_01,BELLEGARDE,23020001.0,2.3,45.978333,588.0,23.0
BELLEVILLE_PARC_2008_75,BELLEVILLE_PARC,75120006.0,2.384667,48.871333,80.0,75.0
BELMONT_LIMOU_2008_12,BELMONT_LIMOU,12025002.0,2.728,43.822333,410.0,12.0
BERGERAC_2008_24,BERGERAC,24037002.0,0.483333,44.851667,51.0,24.0
BERG_2008_67,BERG,67029001.0,7.151667,48.884333,350.0,67.0
BERNAY_2008_27,BERNAY,72033002.0,-0.058333,48.071667,77.0,72.0
BESANCON_2008_25,BESANCON,25056001.0,5.988833,47.249,307.0,25.0
BESIGNAN_2008_26,BESIGNAN,26050001.0,5.317,44.3205,556.0,26.0
BESSEY_2008_21,BESSEY,21065001.0,4.743167,47.086,593.0,21.0
BESSEY_2008_42,BESSEY,21065001.0,4.743167,47.086,593.0,21.0
BESSINES_2008_87,BESSINES,87014005.0,1.376,46.112667,301.0,87.0
BEZIERSVIAS_2008_34,BEZIERSVIAS,34209002.0,3.352667,43.322,15.0,34.0
BIARRITZPAYSBASQUE_2008_64,BIARRITZPAYSBASQUE,64024001.0,-1.534333,43.469333,71.0,64.0
BISCARROSSE_2008_40,BISCARROSSE,40046001.0,-1.2475,44.431667,35.0,40.0
BLACE_2008_69,BLACE,69023002.0,4.642,46.0345,340.0,69.0
BLANCARCI_2008_36,BLANCARCI,36018004.0,1.088333,46.625,108.0,36.0
BLANDAINVILLE_2008_28,BLANDAINVILLE,28041001.0,1.270667,48.3035,163.0,28.0
BLOIS_2008_41,BLOIS,41281001.0,1.212333,47.6785,119.0,41.0
BOEN_SUR_LIGNON_2008_42,BOEN_SUR_LIGNON,42019004.0,4.007333,45.756333,448.0,42.0
BOIGNEVILLE_2008_91,BOIGNEVILLE,91069001.0,2.381167,48.3255,115.0,91.0
BONNAT_2008_23,BONNAT,23025001.0,1.916333,46.315333,382.0,23.0
BONNEVILLE_2008_74,BONNEVILLE,74042001.0,6.408333,46.078333,447.0,74.0
BORMES_LES_MIMOSAS_2008_83,BORMES_LES_MIMOSAS,83019002.0,6.379333,43.195167,88.0,83.0
BORS_2008_16,BORS,16052001.0,0.118333,45.346667,94.0,16.0
BOULLEVILLE_2008_27,BOULLEVILLE,27100001.0,0.392833,49.361,122.0,27.0
BOURDEAUX_2008_26,BOURDEAUX,26056001.0,5.142833,44.580167,432.0,26.0
BOURGARGENTAL_2008_42,BOURGARGENTAL,42023004.0,4.5735,45.298667,514.0,42.0
BOURGES_2008_18,BOURGES,18033001.0,2.359833,47.059167,161.0,18.0
BOURGOIN_2008_38,BOURGOIN,38053001.0,5.265,45.605,254.0,38.0
BOUSSAC_SAPC_2008_23,BOUSSAC_SAPC,23031002.0,2.228333,46.343333,380.0,23.0
BRAINE_2008_02,BRAINE,2110002.0,3.527,49.351333,61.0,2.0
BRANCEILLES_2008_19,BRANCEILLES,19029001.0,1.704833,45.011167,190.0,19.0
BRESTGUIPAVAS_2008_29,BRESTGUIPAVAS,29075001.0,-4.391167,48.453833,92.0,29.0
BRETIGNY_SAPC_2008_91,BRETIGNY_SAPC,91103001.0,2.326,48.6005,78.0,91.0
BRIE_2008_16,BRIE,9067001.0,1.524333,43.202667,265.0,9.0
BRIGNOGAN_2008_29,BRIGNOGAN,29021001.0,-4.331,48.6765,9.0,29.0
BRINDAS_2008_69,BRINDAS,69028001.0,4.693167,45.713333,317.0,69.0
BRIVE_2008_19,BRIVE,19031008.0,1.473333,45.146667,115.0,19.0
BUGEAT_2008_19,BUGEAT,19033001.0,1.930333,45.602667,694.0,19.0
BUHY_2008_95,BUHY,95119001.0,1.6945,49.194,90.0,95.0
BUXY_2008_71,BUXY,71070001.0,4.697667,46.709833,230.0,71.0
CAENCARPIQUET_2008_14,CAENCARPIQUET,14137001.0,-0.456167,49.18,67.0,14.0
CAMBRAIEPINOY_2008_62,CAMBRAIEPINOY,62298001.0,3.163833,50.2255,76.0,62.0
CAMBREMER_2008_14,CAMBREMER,14126001.0,0.041833,49.1455,125.0,14.0
CAMPS_2008_19,CAMPS,19034001.0,1.988333,44.983667,519.0,19.0
CAPDELAHEVE_2008_76,CAPDELAHEVE,76552001.0,0.071167,49.509,100.0,76.0
CAPFERRET_2008_33,CAPFERRET,33236002.0,-1.252,44.630667,8.0,33.0
CAP_BEAR_2008_66,CAP_BEAR,66148001.0,3.133667,42.515333,82.0,66.0
CAP_CEPET_2008_83,CAP_CEPET,83153001.0,5.940833,43.079333,115.0,83.0
CAP_PERTUSATO_2008_20,CAP_PERTUSATO,20041001.0,9.178333,41.374833,107.0,20.0
CARCASSONNE_2008_11,CARCASSONNE,11069001.0,2.2955,43.215333,128.0,11.0
CARPENTRAS_2008_84,CARPENTRAS,84031001.0,5.058333,44.083667,98.0,84.0
CARROS_SAPC_2008_06,CARROS_SAPC,6033002.0,7.209167,43.786667,78.0,6.0
CASSIS_2008_13,CASSIS,13022003.0,5.503167,43.222167,212.0,13.0
CASTANET_2008_81,CASTANET,81061001.0,2.023333,43.986667,275.0,81.0
CASTELNAUDARY_2008_11,CASTELNAUDARY,11076003.0,1.953333,43.316667,160.0,11.0
CAULNESEDF_2008_22,CAULNESEDF,22032002.0,-2.142167,48.298333,75.0,22.0
CAUSSENS_2008_32,CAUSSENS,32095001.0,0.448,43.938667,184.0,32.0
CAUSSOLS_2008_06,CAUSSOLS,6037002.0,6.923167,43.752333,1268.0,6.0
CAVAILLON_2008_84,CAVAILLON,84035003.0,5.032333,43.8565,70.0,84.0
CELLESSURDURO_2008_63,CELLESSURDURO,63066001.0,3.638333,45.886667,670.0,63.0
CEYZERIAT_SAPC_2008_01,CEYZERIAT_SAPC,1072001.0,5.287667,46.204333,260.0,1.0
CHABLIS_SAPC_2008_89,CHABLIS_SAPC,89068001.0,3.791167,47.822,141.0,89.0
CHALET_REYNARD_2008_84,CHALET_REYNARD,84017006.0,5.319667,44.151167,1455.0,84.0
CHALMAZEL_2008_42,CHALMAZEL,42039002.0,3.853167,45.705,855.0,42.0
CHALMAZEL_RA_2008_42,CHALMAZEL_RA,42039003.0,3.844,45.699,990.0,42.0
CHALONCHAMPFO_2008_71,CHALONCHAMPFO,71081001.0,4.825667,46.827,187.0,71.0
CHAMBERYAIX_2008_73,CHAMBERYAIX,73329001.0,5.878,45.641333,235.0,73.0
CHAMBON_VOUEIZE_2008_23,CHAMBON_VOUEIZE,23045001.0,2.424667,46.186833,329.0,23.0
CHAMPAGNOLE_2008_39,CHAMPAGNOLE,39097003.0,5.886,46.756833,537.0,39.0
CHANGIS_2008_77,CHANGIS,77084001.0,3.011833,48.964667,70.0,77.0
CHANNAY_LATHAN_2008_37,CHANNAY_LATHAN,37055002.0,0.255333,47.4795,87.0,37.0
CHAPELLEENVERCORS_SAPC_2008_26,CHAPELLEENVERCORS_SAPC,26074001.0,5.422167,44.9615,879.0,26.0
CHAPELLEMOULIE_2008_86,CHAPELLEMOULIE,86058001.0,0.502667,46.6475,121.0,86.0
CHAREILCINTRAT_SAPC_2008_03,CHAREILCINTRAT_SAPC,3059001.0,3.225667,46.275833,286.0,3.0
CHARLIEU_2008_42,CHARLIEU,42052002.0,4.174167,46.164,278.0,42.0
CHARTRES_2008_28,CHARTRES,28070001.0,1.501167,48.4605,155.0,28.0
CHASSIRON_2008_17,CHASSIRON,17323001.0,-1.411667,46.046833,11.0,17.0
CHATEAUDOLONNE_2008_85,CHATEAUDOLONNE,85060002.0,-1.725833,46.477167,27.0,85.0
CHATEAUDUN_2008_28,CHATEAUDUN,28198001.0,1.376333,48.061333,126.0,28.0
CHATEAUNEUF_VAL_2008_58,CHATEAUNEUF_VAL,58064001.0,3.225333,47.2865,278.0,58.0
CHATEAUROUX_DEOLS_2008_36,CHATEAUROUX_DEOLS,36063001.0,1.741,46.869833,158.0,36.0
CHATEAU_CHINON_2008_58,CHATEAU_CHINON,58062001.0,3.934333,47.070333,598.0,58.0
CHEILLE_2008_37,CHEILLE,37067003.0,0.403833,47.260833,60.0,37.0
CHERONNAC_SAPC_2008_87,CHERONNAC_SAPC,87044001.0,0.76,45.753833,295.0,87.0
CHINON_VITI_2008_37,CHINON_VITI,37072002.0,0.233833,47.184333,76.0,37.0
CHOLET_2008_49,CHOLET,49099004.0,-0.891667,46.996667,130.0,49.0
CHOMERAC_SA_RCE_2008_07,CHOMERAC_SA_RCE,7066001.0,4.648333,44.6995,216.0,7.0
CHOUE_2008_41,CHOUE,41053001.0,0.912833,47.969167,163.0,41.0
CHUSCLAN_2008_30,CHUSCLAN,30081001.0,4.7,44.143333,63.0,30.0
CIRFONTAINES_SAPC_2008_52,CIRFONTAINES_SAPC,52131002.0,5.394667,48.456167,379.0,52.0
CIVRAY_2008_18,CIVRAY,86078002.0,0.298667,46.160333,143.0,86.0
CLERMONTFD_2008_63,CLERMONTFD,63113001.0,3.149333,45.786833,331.0,63.0
COGNAC_2008_16,COGNAC,16089001.0,-0.315833,45.665,30.0,16.0
COLLOBRIERES_SAPC_2008_83,COLLOBRIERES_SAPC,83043005.0,6.258,43.232167,128.0,83.0
COLMARMEYENHEIM_2008_68,COLMARMEYENHEIM,68205001.0,7.407667,47.928667,207.0,68.0
COLMAR_HOUSS_2008_68,COLMAR_HOUSS,68066004.0,7.3605,48.1095,192.0,68.0
COLOGNAC_2008_30,COLOGNAC,30087002.0,3.825,44.021833,589.0,30.0
COLOMBIER_VIEUX_SA_2008_07,COLOMBIER_VIEUX_SA,7069001.0,4.698,45.063667,408.0,7.0
COLOMBIES_2008_12,COLOMBIES,12068001.0,2.317167,44.357833,647.0,12.0
COL_DE_LA_LOGE_SAPC_2008_42,COL_DE_LA_LOGE_SAPC,42040001.0,3.780333,45.743833,1261.0,42.0
COMBLOUX_2008_74,COMBLOUX,74083001.0,6.643333,45.898333,940.0,74.0
CONCA_2008_20,CONCA,20092001.0,9.3485,41.717,253.0,20.0
CONDE_SUR_VIRE_SAPC_2008_50,CONDE_SUR_VIRE_SAPC,50139001.0,-1.0405,49.050833,28.0,50.0
COTTENCHY_2008_80,COTTENCHY,80213001.0,2.391667,49.8205,46.0,80.0
COUFFOULEUX_2008_81,COUFFOULEUX,81070001.0,1.736667,43.81,118.0,81.0
COULANS_2008_25,COULANS,25223002.0,6.0205,47.023333,468.0,25.0
COURDIMANCHE_2008_91,COURDIMANCHE,95183001.0,2.001667,49.033333,54.0,95.0
COURPIERE_2008_63,COURPIERE,63125001.0,3.533333,45.75,325.0,63.0
COURRENSAN_2008_32,COURRENSAN,32110002.0,0.242833,43.858167,153.0,32.0
COURTOMER_2008_61,COURTOMER,61133001.0,0.353333,48.620333,223.0,61.0
CRANGEVRIER_2008_74,CRANGEVRIER,74093001.0,6.107833,45.910833,426.0,74.0
CREIL_2008_60,CREIL,60175001.0,2.520833,49.252167,88.0,60.0
CRUVIERSLASCOURS_2008_30,CRUVIERSLASCOURS,30100001.0,4.200333,44.0025,103.0,30.0
CRUX_LA_VILLE_2008_58,CRUX_LA_VILLE,58092001.0,3.515,47.132833,283.0,58.0
CRUZY_SAPC_2008_89,CRUZY_SAPC,89131001.0,4.2245,47.852,291.0,89.0
CUERS_2008_83,CUERS,83049005.0,6.131333,43.247667,72.0,83.0
DAMMARTIN_DDE_2008_77,DAMMARTIN_DDE,77153003.0,2.704167,49.062167,111.0,77.0
DAUPHIN_2008_04,DAUPHIN,4068001.0,5.767167,43.909833,427.0,4.0
DEAUX_2008_30,DEAUX,30101001.0,4.143667,44.071833,185.0,30.0
DECAZEVILLE_2008_12,DECAZEVILLE,12089001.0,2.255,44.558333,215.0,12.0
DERVAL_2008_44,DERVAL,44051002.0,-1.687167,47.692333,43.0,44.0
DEUXVERGES_2008_15,DEUXVERGES,15060002.0,3.012667,44.8015,1080.0,15.0
DIE_2008_26,DIE,26113003.0,5.3435,44.767667,384.0,26.0
DIJONLONGVIC_2008_21,DIJONLONGVIC,21473001.0,5.088333,47.267833,219.0,21.0
DINARD_2008_35,DINARD,35228001.0,-2.076333,48.584833,65.0,35.0
DIVAJEU_2008_26,DIVAJEU,26115001.0,4.990333,44.726833,175.0,26.0
DONCOURTLESCONFLANS_2008_54,DONCOURTLESCONFLANS,54171001.0,5.929333,49.1535,235.0,54.0
DONZERE_2008_26,DONZERE,26116001.0,4.711667,44.443333,90.0,26.0
DOURDAN_2008_91,DOURDAN,91200002.0,1.993,48.526167,116.0,91.0
DOUSSAY_2008_86,DOUSSAY,86096001.0,0.287,46.852667,95.0,86.0
DRAGUIGNAN_SAPC_2008_83,DRAGUIGNAN_SAPC,83050007.0,6.453333,43.526167,173.0,83.0
DROYES_2008_52,DROYES,52180002.0,4.700167,48.5065,124.0,52.0
DUNSURAURON_2008_18,DUNSURAURON,18087003.0,2.557833,46.9055,167.0,18.0
DUN_LE_PALESTEL_2008_23,DUN_LE_PALESTEL,23075001.0,1.666833,46.317833,365.0,23.0
DURANCE_2008_47,DURANCE,47085001.0,0.1625,44.154333,142.0,47.0
DURBANCORBIERES_2008_11,DURBANCORBIERES,11124003.0,2.819167,42.993167,120.0,11.0
EGLETONS_2008_19,EGLETONS,19073006.0,2.059167,45.398833,610.0,19.0
ENTRECASTEAUX_2008_83,ENTRECASTEAUX,83051001.0,6.252167,43.521333,279.0,83.0
ERNEE_2008_53,ERNEE,53096004.0,-0.9625,48.295667,168.0,53.0
ERNEVILLE_AUX_BOIS_SAPC_2008_55,ERNEVILLE_AUX_BOIS_SAPC,55179001.0,5.403833,48.7495,313.0,55.0
ETEAUX_2008_74,ETEAUX,74116002.0,6.275667,46.063,805.0,74.0
ETOILE_2008_26,ETOILE,26124001.0,4.8895,44.819,145.0,26.0
EUS_2008_66,EUS,66074002.0,2.446333,42.630167,321.0,66.0
EVREUXHUEST_2008_27,EVREUXHUEST,27347001.0,1.221667,49.025,138.0,27.0
EYMOUTIERS_2008_87,EYMOUTIERS,87064005.0,1.701167,45.733833,557.0,87.0
EZE_2008_06,EZE,6059003.0,7.365833,43.738833,704.0,6.0
FAGNIERESINRAE_2008_51,FAGNIERESINRAE,51242001.0,4.3085,48.939833,105.0,51.0
FANJEAUX_SAPC_2008_11,FANJEAUX_SAPC,11136001.0,2.07,43.202,182.0,11.0
FAUGERES_2008_07,FAUGERES,7088001.0,4.136167,44.474667,430.0,7.0
FAYETLECHATEA_2008_63,FAYETLECHATEA,63157001.0,3.429167,45.696667,585.0,63.0
FECLAZ_SAPC_2008_73,FECLAZ_SAPC,73098003.0,5.983667,45.647167,1328.0,73.0
FEINS_SA_2008_35,FEINS_SA,35110003.0,-1.596833,48.326833,87.0,35.0
FELINES_SAPC_2008_43,FELINES_SAPC,43093001.0,3.742833,45.265833,1014.0,43.0
FERRIERELARCON_2008_37,FERRIERELARCON,37107001.0,0.875,46.9875,116.0,37.0
FERTEHAUTERIVE_2008_03,FERTEHAUTERIVE,3114001.0,3.330167,46.375333,226.0,3.0
FEURS_2008_42,FEURS,42094003.0,4.233833,45.7385,347.0,42.0
FIGARI_2008_20,FIGARI,20114002.0,9.103667,41.505167,20.0,20.0
FIRMINY_2008_42,FIRMINY,42095001.0,4.2885,45.378167,515.0,42.0
FIXSTGENEYS_2008_43,FIXSTGENEYS,43095001.0,3.665,45.145833,1102.0,43.0
FLERS_2008_61,FLERS,61169003.0,-0.5895,48.75,195.0,61.0
FONDETTES_2008_37,FONDETTES,37109001.0,0.604167,47.425333,93.0,37.0
FONTAINEDUBER_SAPC_2008_63,FONTAINEDUBER_SAPC,63263005.0,2.991667,45.7995,971.0,63.0
FONTAINELESVV_2008_02,FONTAINELESVV,2321002.0,3.877833,49.837333,186.0,2.0
FONTANNES_2008_43,FONTANNES,43096001.0,3.419667,45.300333,435.0,43.0
FONTENAY_2008_85,FONTENAY,85092002.0,-0.813333,46.466667,14.0,85.0
FOURS_2008_58,FOURS,58118001.0,3.72,46.816667,232.0,58.0
FRESNAYEAUSAUVAGE_SAPC_2008_61,FRESNAYEAUSAUVAGE_SAPC,61179001.0,-0.263667,48.722333,229.0,61.0
FRIGNICOURT_2008_51,FRIGNICOURT,51262001.0,4.618,48.701167,113.0,51.0
GAILLAC_2008_81,GAILLAC,81099002.0,1.898333,43.9,140.0,81.0
GAP_2008_05,GAP,5061008.0,6.091667,44.568333,750.0,5.0
GATUZIERES_SAPC_2008_48,GATUZIERES_SAPC,48069001.0,3.499,44.195333,965.0,48.0
GEISHOUSE_SAPC_2008_68,GEISHOUSE_SAPC,68102001.0,7.056833,47.875333,618.0,68.0
GELLES_2008_63,GELLES,63163001.0,2.799333,45.7535,784.0,63.0
GENERARGUES_2008_30,GENERARGUES,30129001.0,3.977667,44.073333,139.0,30.0
GER_2008_64,GER,64238001.0,-0.083833,43.238333,410.0,64.0
GLANDAGE_SAPC_2008_26,GLANDAGE_SAPC,26142001.0,5.615167,44.674667,1007.0,26.0
GOUVILLE_2008_50,GOUVILLE,50215002.0,-1.606833,49.1075,7.0,50.0
GRAMMOND_SAPC_2008_42,GRAMMOND_SAPC,42102002.0,4.442833,45.564833,803.0,42.0
GRANES_2008_11,GRANES,11168001.0,2.2505,42.909167,420.0,11.0
GRAVESSAINTAMANT_2008_16,GRAVESSAINTAMANT,16297001.0,-0.1015,45.641833,23.0,16.0
GREZENBOUERE_2008_53,GREZENBOUERE,53110002.0,-0.542333,47.891,93.0,53.0
GROSPIERRES_SA_2008_07,GROSPIERRES_SA,7101002.0,4.295833,44.4115,107.0,7.0
GUERET_BONGEOT_2008_23,GUERET_BONGEOT,23096001.0,1.879333,46.1805,402.0,23.0
GUERET_COURTIL_2008_23,GUERET_COURTIL,23096008.0,1.8545,46.1665,464.0,23.0
GUEUGNON_2008_71,GUEUGNON,71230002.0,4.020833,46.598167,305.0,71.0
GUILLONVILLE_CA28_2008_28,GUILLONVILLE_CA28,28190001.0,1.666167,48.091333,132.0,28.0
GUILLY_2008_36,GUILLY,36085001.0,1.757,47.072667,135.0,36.0
GUISCRIFF_SA_2008_56,GUISCRIFF_SA,56081003.0,-3.664167,48.05,165.0,56.0
HARAVILLIERS_2008_95,HARAVILLIERS,95298002.0,2.0475,49.173167,143.0,95.0
HEGENEY_SA_2008_67,HEGENEY_SA,67186001.0,7.735833,48.888667,185.0,67.0
HOUCHES_LES_2008_74,HOUCHES_LES,74143003.0,6.800667,45.8925,1004.0,74.0
HYERES_2008_83,HYERES,83069001.0,6.147,43.1005,2.0,83.0
ILE_DU_LEVANT_2008_83,ILE_DU_LEVANT,83069003.0,6.469333,43.0325,118.0,83.0
INGRANDES_BLTO_2008_37,INGRANDES_BLTO,37120001.0,0.268333,47.288333,56.0,37.0
ISSANLAS_SAPC_2008_07,ISSANLAS_SAPC,7105003.0,3.975333,44.7555,1264.0,7.0
ISSOIRE_2008_63,ISSOIRE,63178001.0,3.262333,45.535333,372.0,63.0
ISSOUDUN_2008_36,ISSOUDUN,36088004.0,1.978,46.9425,138.0,36.0
ISTRES_2008_13,ISTRES,13047002.0,4.988333,43.513333,44.0,13.0
JEULESBOISAUTO_2008_36,JEULESBOISAUTO,36089003.0,1.798333,46.661667,185.0,36.0
JOIGNY_2008_89,JOIGNY,89206001.0,3.370833,47.982833,75.0,89.0
JOUELESTOURS_2008_37,JOUELESTOURS,37122003.0,0.665333,47.337167,93.0,37.0
JOYEUSE_2008_07,JOYEUSE,7110003.0,4.238333,44.48,160.0,7.0
KERPERT_2008_22,KERPERT,22092001.0,-3.147667,48.404,281.0,22.0
LABASTIDEROUAIROUX_2008_81,LABASTIDEROUAIROUX,81115002.0,2.657833,43.478333,448.0,81.0
LABECEDE_LAURAGAIS_SAPC_2008_11,LABECEDE_LAURAGAIS_SAPC,11181002.0,2.022167,43.3895,408.0,11.0
LABLACHERE_2008_07,LABLACHERE,7117002.0,4.208333,44.480833,295.0,7.0
LACAUNE_2008_81,LACAUNE,81124002.0,2.69,43.706667,820.0,81.0
LAC_AIGUEBELETTE_2008_73,LAC_AIGUEBELETTE,73191005.0,5.795833,45.564833,375.0,73.0
LAMBESC_2008_13,LAMBESC,13050001.0,5.2865,43.668667,260.0,13.0
LANDIVISIAU_2008_29,LANDIVISIAU,29264001.0,-4.151833,48.532,109.0,29.0
LANNION_AERO_2008_22,LANNION_AERO,22113006.0,-3.468667,48.755333,85.0,22.0
LANOEBLANCHE_2008_35,LANOEBLANCHE,35202001.0,-1.765,47.780167,89.0,35.0
LANTOSQUE_SAPC_2008_06,LANTOSQUE_SAPC,6074005.0,7.307,43.972,550.0,6.0
LANVEOC_2008_29,LANVEOC,29120001.0,-4.439333,48.279333,81.0,29.0
LAONS_2008_28,LAONS,28206001.0,1.173167,48.706833,171.0,28.0
LARAGNE_MONTEGLIN_2008_05,LARAGNE_MONTEGLIN,5070003.0,5.7945,44.319167,565.0,5.0
LAVALENTRAMMES_2008_53,LAVALENTRAMMES,53094001.0,-0.739333,48.032333,99.0,53.0
LA_BALME_SUR_CERDON_SAPC_2008_01,LA_BALME_SUR_CERDON_SAPC,1200002.0,5.482,46.09,596.0,1.0
LA_BASTIDE_DES_JOURDANS_2008_84,LA_BASTIDE_DES_JOURDANS,84009002.0,5.615,43.787333,381.0,84.0
LA_BROSSEMX_2008_77,LA_BROSSEMX,77054001.0,3.023333,48.351667,77.0,77.0
LA_CHAMPENOISE_2008_36,LA_CHAMPENOISE,36037001.0,1.77,46.951667,177.0,36.0
LA_COURTINE_2008_23,LA_COURTINE,23067001.0,2.263667,45.702667,772.0,23.0
LA_CROIX_SUR_ROUDOULE_SAPC_2008_06,LA_CROIX_SUR_ROUDOULE_SAPC,6051001.0,6.873333,43.987667,860.0,6.0
LA_GRANDE_MOTTE_2008_34,LA_GRANDE_MOTTE,34344001.0,4.082,43.5565,2.0,34.0
LA_GRAND_COMBE_2008_30,LA_GRAND_COMBE,30132002.0,4.023333,44.245,415.0,30.0
LA_MEIJENIVOSE_2008_05,LA_MEIJENIVOSE,5063402.0,6.265167,45.012333,3093.0,5.0
LA_PESSE_2008_39,LA_PESSE,39413001.0,5.843,46.302833,1133.0,39.0
LA_ROCHELLEILE_DE_RE_2008_17,LA_ROCHELLEILE_DE_RE,17300009.0,-1.193167,46.178,20.0,17.0
LA_ROCHELLE_2008_17,LA_ROCHELLE,17300004.0,-1.151667,46.161667,7.0,17.0
LA_ROCHE_SUR_YON_2008_85,LA_ROCHE_SUR_YON,85191003.0,-1.381833,46.705,88.0,85.0
LA_SAUNIERE_2008_23,LA_SAUNIERE,23169001.0,1.938,46.131833,446.0,23.0
LA_SOUTERRAINE_2008_23,LA_SOUTERRAINE,23176001.0,1.451833,46.2425,370.0,23.0
LA_VACQUERIE_SAPC_2008_34,LA_VACQUERIE_SAPC,34317001.0,3.457833,43.792,620.0,34.0
LEGAST_SAPC_2008_14,LEGAST_SAPC,14296001.0,-1.037167,48.794667,336.0,14.0
LERE_2008_18,LERE,18125004.0,2.893167,47.457833,139.0,18.0
LESRICEYS_2008_10,LESRICEYS,10317001.0,4.372,47.997167,185.0,10.0
LES_NOUILLERS_2008_17,LES_NOUILLERS,17266001.0,-0.687667,45.935167,18.0,17.0
LES_PLANS_2008_34,LES_PLANS,34205001.0,3.246167,43.786,846.0,34.0
LEUCATE_2008_11,LEUCATE,11202001.0,3.059667,42.917333,42.0,11.0
LE_BOURGET_2008_95,LE_BOURGET,95088001.0,2.427667,48.967333,49.0,95.0
LE_CASTELLET_2008_83,LE_CASTELLET,83035001.0,5.784667,43.252167,417.0,83.0
LE_GRAU_DU_ROI_2008_30,LE_GRAU_DU_ROI,30133001.0,4.137167,43.496,1.0,30.0
LE_HORPS_2008_53,LE_HORPS,53116003.0,-0.440833,48.405667,268.0,53.0
LE_LIORAN_SAPC_2008_15,LE_LIORAN_SAPC,15101004.0,2.747667,45.080833,1236.0,15.0
LE_LUC_2008_83,LE_LUC,83031001.0,6.386167,43.383167,80.0,83.0
LE_MANS_2008_72,LE_MANS,72181001.0,0.194167,47.945833,51.0,72.0
LE_MERLERAULT_SAPC_2008_61,LE_MERLERAULT_SAPC,61275001.0,0.299,48.711167,236.0,61.0
LE_MONTDORE_BG_2008_63,LE_MONTDORE_BG,63236002.0,2.807,45.5745,1050.0,63.0
LE_PERRIER_2008_85,LE_PERRIER,85172001.0,-1.999833,46.8265,2.0,85.0
LE_PERTHUS_2008_66,LE_PERTHUS,66137003.0,2.8595,42.473333,295.0,66.0
LE_PERTUIS_SAPC_2008_43,LE_PERTUIS_SAPC,43150001.0,4.061333,45.098833,1020.0,43.0
LE_PUYCHADRAC_2008_43,LE_PUYCHADRAC,43046001.0,3.8945,45.054667,714.0,43.0
LE_PUYLOUDES_2008_43,LE_PUYLOUDES,43062001.0,3.764,45.0745,833.0,43.0
LE_SAIX_2008_05,LE_SAIX,5158001.0,5.8155,44.475833,801.0,5.0
LE_VERDIER_2008_81,LE_VERDIER,81313001.0,1.916667,44.0,218.0,81.0
LE_VIGAN_2008_30,LE_VIGAN,30350001.0,3.6115,43.99,222.0,30.0
LIGRE_2008_37,LIGRE,37129002.0,0.273,47.112333,67.0,37.0
LILLELESQUIN_2008_59,LILLELESQUIN,59343001.0,3.0975,50.57,47.0,59.0
LIMERAY_2008_37,LIMERAY,37131002.0,1.011833,47.461167,113.0,37.0
LIMOGESBELLEGARDE_2008_87,LIMOGESBELLEGARDE,87085006.0,1.175,45.861167,402.0,87.0
LIMOGES_VILLE_2008_87,LIMOGES_VILLE,87085009.0,1.2675,45.828667,252.0,87.0
LIVRON_2008_26,LIVRON,26165001.0,4.830667,44.794167,98.0,26.0
LIVRY_2008_14,LIVRY,14372001.0,-0.7665,49.099167,194.0,14.0
LOMONT_2008_25,LOMONT,25635001.0,6.625667,47.358667,820.0,25.0
LONGEVILLES_2008_25,LONGEVILLES,25348001.0,6.32,46.755,912.0,25.0
LORIENTLANN_BIHOUE_2008_56,LORIENTLANN_BIHOUE,56185001.0,-3.435667,47.762833,45.0,56.0
LOUARGAT_2008_22,LOUARGAT,22135002.0,-3.305,48.573333,260.0,22.0
LOUBARESSE_2008_07,LOUBARESSE,15108001.0,3.211667,44.933333,710.0,15.0
LOUVIGNEDUDESERT_2008_35,LOUVIGNEDUDESERT,35162003.0,-1.129833,48.479333,153.0,35.0
LUBERSAC_2008_19,LUBERSAC,19121002.0,1.411167,45.410333,390.0,19.0
LUCENAY_2008_69,LUCENAY,69122001.0,4.694833,45.905667,255.0,69.0
LUCENDIOIS_2008_26,LUCENDIOIS,26167001.0,5.451,44.617333,537.0,26.0
LUCHON_2008_31,LUCHON,31042012.0,0.600167,42.8015,618.0,31.0
LUGNY_SA_2008_71,LUGNY_SA,71267002.0,4.81,46.477833,280.0,71.0
LUS_L_CROIX_HTE_2008_26,LUS_L_CROIX_HTE,26168001.0,5.710833,44.672833,1059.0,26.0
LYE_2008_36,LYE,36107001.0,1.5,47.228333,130.0,36.0
LYONBRON_2008_69,LYONBRON,69029001.0,4.949167,45.721333,202.0,69.0
LYONST_EXUPERY_2008_69,LYONST_EXUPERY,69299001.0,5.077833,45.7265,235.0,69.0
L_ILE_D_YEU_2008_85,L_ILE_D_YEU,85113001.0,-2.330167,46.693667,32.0,85.0
MACON_2008_71,MACON,71270004.0,4.83,46.308333,216.0,71.0
MAGNACLAVAL_2008_87,MAGNACLAVAL,87089003.0,1.187,46.209667,246.0,87.0
MAGNANVILLE_2008_78,MAGNANVILLE,78354001.0,1.674167,48.963667,123.0,78.0
MAILLYCIVC_2008_51,MAILLYCIVC,51338001.0,4.116333,49.155333,182.0,51.0
MAISONNAIS_2008_18,MAISONNAIS,18135001.0,2.2235,46.672667,219.0,18.0
MARCE_2008_49,MARCE,49188001.0,-0.317,47.561833,53.0,49.0
MARCILLAC_2008_19,MARCILLAC,19125001.0,2.039833,45.2835,598.0,19.0
MARIGNANE_2008_13,MARIGNANE,13054001.0,5.216,43.437667,9.0,13.0
MARIGNY_BRIZAY_2008_86,MARIGNY_BRIZAY,86146001.0,0.385333,46.75,120.0,86.0
MARKSTEIN_CRETE_2008_68,MARKSTEIN_CRETE,68247003.0,7.031667,47.923,1184.0,68.0
MARMANDE_2008_47,MARMANDE,47157004.0,0.193333,44.498167,30.0,47.0
MARSACENLIVRA_2008_63,MARSACENLIVRA,63211001.0,3.73,45.478667,540.0,63.0
MARSAZ_2008_26,MARSAZ,26177001.0,4.938667,45.113167,213.0,26.0
MARSEILLE_2008_13,MARSEILLE,13055029.0,5.479167,43.310667,192.0,13.0
MARTIGNEBRIAND_2008_49,MARTIGNEBRIAND,49191001.0,-0.435833,47.2525,73.0,49.0
MARVILLE_SAPC_2008_28,MARVILLE_SAPC,28239002.0,1.371833,48.652667,153.0,28.0
MAURIAC_2008_15,MAURIAC,15120005.0,2.293167,45.222167,674.0,15.0
MAURON_2008_56,MAURON,56127001.0,-2.285667,48.065667,74.0,56.0
MAURS_2008_15,MAURS,15122002.0,2.166,44.734167,480.0,15.0
MAXENT_2008_35,MAXENT,35169001.0,-1.967833,47.980833,116.0,35.0
MEAILLES_SAPC_2008_04,MEAILLES_SAPC,4115001.0,6.6295,44.031167,1090.0,4.0
MELAY_2008_71,MELAY,71291001.0,4.002333,46.215,315.0,71.0
MENAT_2008_63,MENAT,63223001.0,2.91,46.105167,410.0,63.0
MENTON_2008_06,MENTON,6083005.0,7.488667,43.785833,216.0,6.0
MERDRIGNAC_2008_22,MERDRIGNAC,22147005.0,-2.408333,48.191667,135.0,22.0
METZFRESCATY_2008_57,METZFRESCATY,57039001.0,6.125333,49.0695,192.0,57.0
MEYMAC_2008_19,MEYMAC,19136001.0,2.145,45.536667,710.0,19.0
MEYTHET_2008_74,MEYTHET,74182001.0,6.094,45.928167,455.0,74.0
MIERMAIGNE_2008_28,MIERMAIGNE,28252002.0,0.99,48.253,267.0,28.0
MILLAULARZAC_SAPC_2008_12,MILLAULARZAC_SAPC,12063003.0,3.181833,43.987,794.0,12.0
MILLAU_2008_12,MILLAU,12145001.0,3.0195,44.1185,712.0,12.0
MIRABEL_SA_2008_07,MIRABEL_SA,7159001.0,4.497333,44.5815,275.0,7.0
MONTAUBAN_2008_82,MONTAUBAN,82121002.0,1.376667,44.028,106.0,82.0
MONTBARD_SAPC_2008_21,MONTBARD_SAPC,21425001.0,4.3305,47.6285,209.0,21.0
MONTBELIARD_2008_25,MONTBELIARD,25388002.0,6.813333,47.503667,318.0,25.0
MONTBEUGNY_2008_03,MONTBEUGNY,3180001.0,3.423167,46.536333,275.0,3.0
MONTBOUCHERSJ_2008_26,MONTBOUCHERSJ,26191001.0,4.824167,44.545,136.0,26.0
MONTCLAR_SAPC_2008_04,MONTCLAR_SAPC,4126001.0,6.333333,44.391833,1197.0,4.0
MONTELIMAR_2008_26,MONTELIMAR,26198001.0,4.733,44.581167,73.0,26.0
MONTFORTSURARGENS_SAPC_2008_83,MONTFORTSURARGENS_SAPC,83083001.0,6.127,43.469667,141.0,83.0
MONTGARDON_2008_50,MONTGARDON,50343001.0,-1.573833,49.2795,80.0,50.0
MONTIGNAC_2008_16,MONTIGNAC,16226001.0,0.1015,45.777167,63.0,16.0
MONTJOUX_2008_26,MONTJOUX,26202001.0,5.097167,44.5095,491.0,26.0
MONTLAUR_2008_12,MONTLAUR,11251001.0,2.556667,43.13,150.0,11.0
MONTMORILLON_2008_86,MONTMORILLON,86165001.0,0.86,46.416667,152.0,86.0
MONTPELLIERAEROPORT_2008_34,MONTPELLIERAEROPORT,34154001.0,3.964667,43.576167,1.0,34.0
MONTPEZAT_SA_2008_07,MONTPEZAT_SA,7161001.0,4.207,44.715667,602.0,7.0
MONTREUIL_2008_10,MONTREUIL,10255002.0,4.275833,48.217333,150.0,10.0
MONTRIEUX_2008_41,MONTRIEUX,41152001.0,1.7305,47.535833,96.0,41.0
MONTSEGURSLAU_2008_26,MONTSEGURSLAU,26211001.0,4.860833,44.3615,146.0,26.0
MONT_AIGOUAL_2008_30,MONT_AIGOUAL,30339001.0,3.5815,44.121333,1567.0,30.0
MONT_CENIS_2008_73,MONT_CENIS,73144001.0,6.899167,45.269333,2032.0,73.0
MORTEAU_SA_2008_25,MORTEAU_SA,25411005.0,6.612167,47.062333,760.0,25.0
MOUANS_SARTOUX_2008_06,MOUANS_SARTOUX,6084002.0,6.951167,43.611833,165.0,6.0
MOURMELONGRAND_2008_51,MOURMELONGRAND,51388003.0,4.3585,49.1075,115.0,51.0
MOUTHOUMET_2008_11,MOUTHOUMET,11260001.0,2.525,42.96,558.0,11.0
MOUZAY_2008_55,MOUZAY,55364001.0,5.209167,49.460167,166.0,55.0
MTSTVINCENT_2008_71,MTSTVINCENT,71320001.0,4.477,46.627667,601.0,71.0
MUIDS_2008_27,MUIDS,27422001.0,1.2805,49.224167,31.0,27.0
MULHOUSE_2008_68,MULHOUSE,68224006.0,7.288833,47.75,245.0,68.0
MURS_2008_36,MURS,36136001.0,1.168333,46.925,148.0,36.0
MURS_2008_84,MURS,36136001.0,1.168333,46.925,148.0,36.0
NAIZININRAE_2008_56,NAIZININRAE,56144001.0,-2.8165,48.005333,132.0,56.0
NANTESBOUGUENAIS_2008_44,NANTESBOUGUENAIS,44020001.0,-1.608833,47.15,26.0,44.0
NANTIAT_2008_87,NANTIAT,87103002.0,1.180667,46.004667,335.0,87.0
NARBONNE_2008_11,NARBONNE,11262001.0,3.013333,43.183333,13.0,11.0
NAUSSAC_2008_48,NAUSSAC,48105001.0,3.828333,44.748333,967.0,48.0
NAVES_2008_19,NAVES,19146001.0,1.772667,45.3215,450.0,19.0
NEMOURS_2008_77,NEMOURS,77333003.0,2.715,48.27,73.0,77.0
NEULISE_2008_42,NEULISE,42156002.0,4.178667,45.9065,557.0,42.0
NEUVIC_2008_19,NEUVIC,19148001.0,2.2815,45.379167,615.0,19.0
NEVERSMARZY_2008_58,NEVERSMARZY,58160001.0,3.112667,46.998333,175.0,58.0
NICEST_ROMAN_2008_06,NICEST_ROMAN,6088009.0,7.216667,43.751667,323.0,6.0
NIMESGARONS_2008_30,NIMESGARONS,30258001.0,4.412833,43.772833,94.0,30.0
NIORT_2008_79,NIORT,79191005.0,-0.400167,46.315833,57.0,79.0
NOGENT_2008_28,NOGENT,94052001.0,2.483333,48.838333,60.0,94.0
ORCIERESNIVOSE_2008_05,ORCIERESNIVOSE,5096404.0,6.333667,44.719,2280.0,5.0
ORCIVAL_2008_63,ORCIVAL,63264001.0,2.833167,45.669167,1080.0,63.0
ORGERUS_2008_78,ORGERUS,78465001.0,1.693833,48.859167,102.0,78.0
ORGNAC_AVEN_2008_07,ORGNAC_AVEN,7168001.0,4.421667,44.288333,230.0,7.0
ORLEANS_2008_45,ORLEANS,45055001.0,1.778167,47.990667,123.0,45.0
ORLY_2008_91,ORLY,91027002.0,2.397,48.718,86.0,91.0
ORSENNES_2008_36,ORSENNES,36146001.0,1.668333,46.465,315.0,36.0
ORVAL_RAD_2008_18,ORVAL_RAD,18172003.0,2.467333,46.731,165.0,18.0
OUROUER_2008_18,OUROUER,58204001.0,3.305,47.058667,262.0,58.0
OUZOUERARVALIS_2008_41,OUZOUERARVALIS,41173002.0,1.522167,47.904,129.0,41.0
PAGNYLECHATEAU_2008_21,PAGNYLECHATEAU,21131001.0,5.190667,47.043167,182.0,21.0
PALLUAU_2008_85,PALLUAU,85169002.0,-1.597667,46.808,51.0,85.0
PARASSY_2008_18,PARASSY,18176001.0,2.5245,47.230333,257.0,18.0
PARISMONTSOURIS_2008_75,PARISMONTSOURIS,75114001.0,2.337833,48.821667,75.0,75.0
PAUUZEIN_2008_64,PAUUZEIN,64549001.0,-0.416333,43.385,183.0,64.0
PEAUGRES_RAD_2008_07,PEAUGRES_RAD,7172002.0,4.705833,45.286167,480.0,7.0
PEGOMASTANNERON_2008_06,PEGOMASTANNERON,6090001.0,6.897,43.562667,483.0,6.0
PEILLE_2008_06,PEILLE,6091004.0,7.4,43.8,672.0,6.0
PEIRA_CAVA_2008_06,PEIRA_CAVA,6077006.0,7.363333,43.929167,1443.0,6.0
PERPIGNAN_2008_66,PERPIGNAN,66136004.0,2.885,42.701667,48.0,66.0
PEYRELEVADE_2008_19,PEYRELEVADE,19164001.0,2.058667,45.701,827.0,19.0
PIC_DU_MIDI_OBSERVATOIRE_2008_65,PIC_DU_MIDI_OBSERVATOIRE,,,,,
PIERREBUFFIERE_2008_87,PIERREBUFFIERE,87119002.0,1.358333,45.696667,253.0,87.0
PILACANALE_2008_20,PILACANALE,20232002.0,8.903667,41.8145,407.0,20.0
PLEYBERCHRIST_SA_2008_29,PLEYBERCHRIST_SA,29163003.0,-3.8535,48.5,147.0,29.0
PLOERMEL_2008_56,PLOERMEL,56165003.0,-2.3975,47.950833,65.0,56.0
PLOMELININRAE_2008_29,PLOMELININRAE,29170001.0,-4.128,47.946,33.0,29.0
PLOUAYSA_2008_56,PLOUAYSA,56166005.0,-3.3445,47.916167,75.0,56.0
PLOUGUENAST_2008_22,PLOUGUENAST,22219001.0,-2.708333,48.28,150.0,22.0
POINVILLE_2008_28,POINVILLE,28300002.0,1.8945,48.1735,130.0,28.0
POITIERSBIARD_2008_86,POITIERSBIARD,86027001.0,0.314333,46.593833,125.0,86.0
PONTARLIER_2008_25,PONTARLIER,25462001.0,6.32,46.927,808.0,25.0
PONTIVY_2008_56,PONTIVY,56178002.0,-2.848333,48.083333,59.0,56.0
PONTOISE_AERO_2008_95,PONTOISE_AERO,95078001.0,2.0285,49.090333,87.0,95.0
PONTOISE_VILLE_2008_95,PONTOISE_VILLE,95500003.0,2.084667,49.044667,50.0,95.0
PORT_DAULANIVOSE_2008_09,PORT_DAULANIVOSE,9285400.0,1.114333,42.77,2140.0,9.0
POUILLY_SUR_LOI_2008_58,POUILLY_SUR_LOI,58215005.0,2.962167,47.297,225.0,58.0
POUZAUGES_SA_2008_85,POUZAUGES_SA,85182004.0,-0.830833,46.766,153.0,85.0
PREAUX_SA_2008_07,PREAUX_SA,7185001.0,4.665,45.14,525.0,7.0
PREVERANGES_2008_18,PREVERANGES,18187004.0,2.2365,46.425333,462.0,18.0
PTE_DE_CHEMOULIN_2008_44,PTE_DE_CHEMOULIN,44184001.0,-2.2985,47.233667,14.0,44.0
PUJAUT_2008_30,PUJAUT,30209001.0,4.775,44.005,110.0,30.0
PUYCELSI_2008_81,PUYCELSI,81217002.0,1.680667,43.981,260.0,81.0
PUYMERAS_2008_84,PUYMERAS,84094001.0,5.131333,44.2895,392.0,84.0
PUYSTMARTIN_2008_26,PUYSTMARTIN,26258001.0,4.976833,44.618167,211.0,26.0
QUIMPER_2008_29,QUIMPER,29232002.0,-4.108333,47.995,60.0,29.0
QUINCY_SA_2008_18,QUINCY_SA,18190002.0,2.137833,47.136333,128.0,18.0
REGUSSE_2008_83,REGUSSE,83102001.0,6.128333,43.655,525.0,83.0
REIGNAC_2008_37,REIGNAC,37192001.0,0.899,47.219333,90.0,37.0
REMUZAT_2008_26,REMUZAT,26264002.0,5.367,44.431667,475.0,26.0
RENNO_2008_20,RENNO,20258001.0,8.807167,42.190167,755.0,20.0
REUILLY_2008_36,REUILLY,36171002.0,2.026667,47.076667,155.0,36.0
RIMPLAS_SAPC_2008_06,RIMPLAS_SAPC,6102001.0,7.1335,44.067167,1130.0,6.0
RIORGES_2008_42,RIORGES,42184002.0,4.040167,46.0545,297.0,42.0
RIOUX_MARTIN_2008_16,RIOUX_MARTIN,16279001.0,0.003333,45.262,81.0,16.0
ROANNERIORGES_AERO_2008_42,ROANNERIORGES_AERO,42253001.0,4.0045,46.055,337.0,42.0
ROCHEFORTSAMSON_SAPC_2008_26,ROCHEFORTSAMSON_SAPC,26273002.0,5.165167,44.990667,368.0,26.0
ROISSY_2008_95,ROISSY,95527001.0,2.534333,49.015167,108.0,95.0
ROMORANTIN_2008_41,ROMORANTIN,41194001.0,1.746667,47.36,104.0,41.0
RONSENAC_2008_16,RONSENAC,16283002.0,0.253333,45.478333,90.0,16.0
ROQUESTERON_2008_06,ROQUESTERON,6106002.0,7.006167,43.876333,405.0,6.0
ROSNAY_2008_36,ROSNAY,36173002.0,1.249833,46.703,109.0,36.0
ROSTRENEN_2008_22,ROSTRENEN,22266001.0,-3.295333,48.226667,236.0,22.0
ROUENBOOS_2008_76,ROUENBOOS,76116001.0,1.178333,49.3895,156.0,76.0
ROUESSEVASSE_2008_72,ROUESSEVASSE,72255001.0,-0.225667,48.139333,206.0,72.0
ROUVROYENSANTERRE_2008_80,ROUVROYENSANTERRE,80682001.0,2.698333,49.765167,95.0,80.0
RUFFEC_2008_16,RUFFEC,16292001.0,0.178167,46.022667,121.0,16.0
RULLY_2008_71,RULLY,71378001.0,4.744167,46.8665,240.0,71.0
RUYNES_2008_15,RUYNES,15168003.0,3.221333,45.001333,905.0,15.0
SAINTCASTLEG_2008_22,SAINTCASTLEG,22282001.0,-2.247,48.6445,35.0,22.0
SAINTELIVRADESURLOT_2008_47,SAINTELIVRADESURLOT,47252002.0,0.614,44.4305,49.0,47.0
SAINTES_2008_17,SAINTES,17415003.0,-0.652,45.761167,38.0,17.0
SAINT_BRIEUC_2008_22,SAINT_BRIEUC,22278005.0,-2.735667,48.506167,84.0,22.0
SAINT_GERMAIN_SAPC_2008_72,SAINT_GERMAIN_SAPC,72284001.0,0.093,48.301333,85.0,72.0
SAINT_PRIVE_2008_89,SAINT_PRIVE,89365001.0,2.985333,47.658,198.0,89.0
SALIGNAC_2008_17,SALIGNAC,17418001.0,-0.4225,45.670667,15.0,17.0
SALINDRES_2008_30,SALINDRES,30305001.0,4.1525,44.1745,191.0,30.0
SALLENELLES_2008_14,SALLENELLES,14665001.0,-0.234667,49.264167,7.0,14.0
SALLES_DE_BARB_2008_16,SALLES_DE_BARB,16360001.0,-0.111667,45.45,71.0,16.0
SALON_DE_PROVENCE_2008_13,SALON_DE_PROVENCE,13103001.0,5.108,43.612833,58.0,13.0
SAMPOLO_2008_20,SAMPOLO,20268001.0,9.123,41.943,837.0,20.0
SANCERRE_2008_18,SANCERRE,18241002.0,2.799,47.336167,240.0,18.0
SARTENE_2008_20,SARTENE,20272004.0,8.979333,41.652333,62.0,20.0
SAUGUESSA_2008_43,SAUGUESSA,43234005.0,3.539833,44.966167,945.0,43.0
SAUNAY_2008_37,SAUNAY,37240001.0,0.931333,47.590333,109.0,37.0
SAUXILLANGES_2008_63,SAUXILLANGES,63415001.0,3.368833,45.551333,460.0,63.0
SAVIGNY_CLAIRIS_2008_89,SAVIGNY_CLAIRIS,89380001.0,3.104,48.0865,184.0,89.0
SAVIGNY_LES_BEA_2008_21,SAVIGNY_LES_BEA,21590001.0,4.836667,47.056333,246.0,21.0
SAVIGNY_VERON_2008_37,SAVIGNY_VERON,37242002.0,0.149333,47.227,33.0,37.0
SA_AUBRAC_2008_12,SA_AUBRAC,12214005.0,2.985167,44.631333,1393.0,12.0
SCHEIBENHARD_2008_67,SCHEIBENHARD,67443001.0,8.1455,48.964167,144.0,67.0
SEDERON_2008_26,SEDERON,26340001.0,5.538833,44.202333,804.0,26.0
SEGRE_2008_49,SEGRE,49331002.0,-0.871,47.698333,49.0,49.0
SEINGBOUSE_2008_57,SEINGBOUSE,57644001.0,6.831,49.127667,347.0,57.0
SELESTAT_SA_2008_67,SELESTAT_SA,67462004.0,7.478333,48.272833,173.0,67.0
SENS_2008_89,SENS,89387002.0,3.288667,48.167667,70.0,89.0
SEPTSARGES_2008_55,SEPTSARGES,55484001.0,5.155,49.276333,293.0,55.0
SERRALONGUE_2008_66,SERRALONGUE,66194002.0,2.557833,42.399833,700.0,66.0
SEVRY_2008_18,SEVRY,18251001.0,2.804667,47.138,205.0,18.0
SISTERON_2008_04,SISTERON,4209005.0,5.916,44.2245,500.0,4.0
SONZAY_2008_37,SONZAY,37249001.0,0.470667,47.5185,117.0,37.0
SOSPEL_2008_06,SOSPEL,6136005.0,7.433667,43.862833,843.0,6.0
SOUCIEU_2008_69,SOUCIEU,69176001.0,4.692333,45.665667,367.0,69.0
SOULAINES_2008_10,SOULAINES,10372001.0,4.671333,48.399333,138.0,10.0
SPEZET_2008_29,SPEZET,29278001.0,-3.7295,48.1735,138.0,29.0
STAGREVE_2008_07,STAGREVE,7204005.0,4.401,45.012167,1072.0,7.0
STAMANDMTROND_2008_18,STAMANDMTROND,18197004.0,2.502833,46.737333,177.0,18.0
STANDREAPCHON_2008_42,STANDREAPCHON,42199002.0,3.933333,46.025,380.0,42.0
STAUBAN_2008_26,STAUBAN,26292002.0,5.409833,44.294833,625.0,26.0
STBARTHELEMYV_SAPC_2008_26,STBARTHELEMYV_SAPC,26295001.0,4.9025,45.173833,203.0,26.0
STCHAMOND_2008_42,STCHAMOND,42207002.0,4.485667,45.459833,400.0,42.0
STCHRISTOPHEL_SAPC_2008_26,STCHRISTOPHEL_SAPC,26298001.0,5.071833,45.229333,452.0,26.0
STCHRISTOPHESURNAIS_2008_37,STCHRISTOPHESURNAIS,37213003.0,0.464333,47.6155,107.0,37.0
STCOMEDOLT_2008_12,STCOMEDOLT,12216001.0,2.827833,44.514667,380.0,12.0
STDESIRAT_SA_2008_07,STDESIRAT_SA,7228001.0,4.783667,45.260333,275.0,7.0
STEPAIN_2008_37,STEPAIN,37216002.0,0.604833,47.157167,112.0,37.0
STETIENNE_LUGDARES_2008_07,STETIENNE_LUGDARES,7232001.0,3.9485,44.651333,1022.0,7.0
STETIENN_MET_2008_42,STETIENN_MET,42218007.0,4.417667,45.421833,590.0,42.0
STE_LEOCADIE_2008_66,STE_LEOCADIE,66181001.0,2.013333,42.445,1320.0,66.0
STE_MARIE_CUINES_2008_73,STE_MARIE_CUINES,73255003.0,6.307167,45.3435,460.0,73.0
STFULGENT_SAPC_2008_85,STFULGENT_SAPC,85215002.0,-1.184167,46.848,62.0,85.0
STGEORGESREN_2008_69,STGEORGESREN,69206001.0,4.710833,46.058167,190.0,69.0
STGERMAINL_AR_2008_69,STGERMAINL_AR,69208001.0,4.6045,45.869333,370.0,69.0
STGERMAINL_HE_2008_63,STGERMAINL_HE,63353003.0,3.532667,45.461,1070.0,63.0
STGERVAISD_AU_2008_63,STGERVAISD_AU,63354004.0,2.803833,46.032667,705.0,63.0
STHILAIRE_2008_61,STHILAIRE,38395001.0,5.884,45.307833,970.0,38.0
STJEAND_ARDIE_2008_69,STJEAND_ARDIE,69211001.0,4.702667,46.117667,240.0,69.0
STJEANENROYA_2008_26,STJEANENROYA,26307001.0,5.2925,45.009167,308.0,26.0
STJUSTENCHEV_2008_42,STJUSTENCHEV,42248002.0,3.844167,45.9085,612.0,42.0
STMARCELLESVINRAE_2008_26,STMARCELLESVINRAE,26313001.0,4.931333,44.980167,190.0,26.0
STMARTINCRAU_2008_13,STMARTINCRAU,13097002.0,4.851667,43.596667,21.0,13.0
STMARTINDA_2008_18,STMARTINDA,18223003.0,2.416833,47.200667,172.0,18.0
STMARTINDUM_2008_21,STMARTINDUM,21561003.0,4.781167,47.4005,578.0,21.0
STMARTINMER_2008_21,STMARTINMER,21560001.0,4.260833,47.238167,521.0,21.0
STMAURICELESCOUCHES_SAPC_2008_71,STMAURICELESCOUCHES_SAPC,71464001.0,4.594833,46.881833,300.0,71.0
STMAUR_2008_94,STMAUR,94068001.0,2.492333,48.808667,48.0,94.0
STPIERREVILLE_2008_07,STPIERREVILLE,7286002.0,4.485,44.814333,560.0,7.0
STPRIVAT_2008_19,STPRIVAT,19237001.0,2.096,45.139,585.0,19.0
STRASBOURG_BOTANIQUE_2008_67,STRASBOURG_BOTANIQUE,67482001.0,7.768833,48.581833,139.0,67.0
STSAUVEUR_SA_2008_07,STSAUVEUR_SA,7294001.0,4.26,44.296,149.0,7.0
STSORLINENVA_2008_26,STSORLINENVA,26330001.0,4.930333,45.271167,237.0,26.0
STSULPICE_2008_63,STSULPICE,91578001.0,2.178333,48.541667,76.0,91.0
ST_ANDRE_2008_89,ST_ANDRE,58229001.0,3.845,47.398333,275.0,58.0
ST_AUBAN_2008_04,ST_AUBAN,4049001.0,5.989667,44.062167,458.0,4.0
ST_BRIEUC_2008_22,ST_BRIEUC,22372001.0,-2.852,48.534667,135.0,22.0
ST_CANNAT_2008_13,ST_CANNAT,13091001.0,5.251333,43.591333,198.0,13.0
ST_CREPIN_2008_05,ST_CREPIN,24392001.0,1.276667,44.958333,270.0,24.0
ST_ETIENNEBOUTHEON_2008_42,ST_ETIENNEBOUTHEON,42005001.0,4.293833,45.545667,395.0,42.0
ST_ETIENNE_DE_TINEE_SAPC_2008_06,ST_ETIENNE_DE_TINEE_SAPC,6120004.0,6.921167,44.257667,1150.0,6.0
ST_FLOUR_2008_15,ST_FLOUR,15187006.0,3.067333,45.024333,909.0,15.0
ST_GERMAIN_BELL_2008_87,ST_GERMAIN_BELL,87146002.0,1.4995,45.6125,418.0,87.0
ST_JEANSTNICOLAS_2008_05,ST_JEANSTNICOLAS,5145002.0,6.209833,44.670833,1210.0,5.0
ST_JEAN_DE_MINERVOIS_2008_34,ST_JEAN_DE_MINERVOIS,34269001.0,2.857667,43.385667,258.0,34.0
ST_JULIEN_DE_PEYROLAS_2008_30,ST_JULIEN_DE_PEYROLAS,30273001.0,4.579333,44.277,71.0,30.0
ST_JULIEN_SA_2008_39,ST_JULIEN_SA,39485002.0,5.448,46.385167,361.0,39.0
ST_JUNIEN_2008_87,ST_JUNIEN,87154003.0,0.917,45.900833,271.0,87.0
ST_LEONARD_NOBL_2008_87,ST_LEONARD_NOBL,87161002.0,1.4965,45.828667,346.0,87.0
ST_MARTIN_DE_LONDRES_2008_34,ST_MARTIN_DE_LONDRES,34274001.0,3.729333,43.7795,214.0,34.0
ST_MAURICE_2008_54,ST_MAURICE,88426001.0,6.823333,47.856667,660.0,88.0
ST_MAXIMINOLLI_2008_83,ST_MAXIMINOLLI,83116004.0,5.851167,43.480667,295.0,83.0
ST_NAZAIREMONTOIR_2008_44,ST_NAZAIREMONTOIR,44103001.0,-2.1545,47.313833,3.0,44.0
ST_PAUL_DE_FENOUILLET_2008_66,ST_PAUL_DE_FENOUILLET,66187006.0,2.485333,42.8205,300.0,66.0
ST_QUENTIN_2008_02,ST_QUENTIN,2320001.0,3.206,49.818333,98.0,2.0
ST_RAMBERT_CG01_2008_01,ST_RAMBERT_CG01,1384003.0,5.461,45.950333,296.0,1.0
ST_ROMANDIOIS_2008_26,ST_ROMANDIOIS,26327001.0,5.428333,44.693833,545.0,26.0
ST_SAUVEUR_CAMPRIEU_2008_30,ST_SAUVEUR_CAMPRIEU,30297001.0,3.4745,44.119333,1107.0,30.0
ST_YAN_2008_71,ST_YAN,71491001.0,4.0165,46.408333,242.0,71.0
ST_YRIEIX_LA_PE_2008_87,ST_YRIEIX_LA_PE,87187003.0,1.243833,45.513667,404.0,87.0
SUBLAINES_2008_37,SUBLAINES,37253001.0,0.993167,47.265,111.0,37.0
SURGERES_2008_17,SURGERES,17434001.0,-0.705,46.123333,75.0,17.0
TANUS_2008_81,TANUS,81292001.0,2.279667,44.107167,537.0,81.0
TARASCON_2008_13,TARASCON,13108002.0,4.666667,43.805,102.0,13.0
TARBESLOURDESPYRENEES_2008_65,TARBESLOURDESPYRENEES,65344001.0,0.0,43.188,360.0,65.0
TAULIGNAN_2008_26,TAULIGNAN,26348001.0,4.989833,44.430167,257.0,26.0
TAUVES_2008_63,TAUVES,63426001.0,2.595667,45.544667,851.0,63.0
TENDU_SAPC_2008_36,TENDU_SAPC,36219001.0,1.588333,46.6615,155.0,36.0
THAUVENAY_SA_2008_18,THAUVENAY_SA,18262002.0,2.8615,47.302,195.0,18.0
THEIX_2008_56,THEIX,63345001.0,3.016667,45.7,820.0,63.0
TONNERRE_JOUDRE_2008_89,TONNERRE_JOUDRE,89418007.0,3.995,47.868167,200.0,89.0
TORCY_2008_71,TORCY,71540001.0,4.466667,46.766667,322.0,71.0
TORCY_2008_77,TORCY,71540001.0,4.466667,46.766667,322.0,71.0
TORTEZAIS_SAPC_2008_03,TORTEZAIS_SAPC,3285001.0,2.857,46.451333,256.0,3.0
TOULON_2008_83,TOULON,83137001.0,5.900667,43.115833,3.0,83.0
TOULOUSEBLAGNAC_2008_31,TOULOUSEBLAGNAC,31069001.0,1.378833,43.621,151.0,31.0
TOURS_2008_37,TOURS,37179001.0,0.727333,47.4445,108.0,37.0
TOUSSUS_LE_NOBLE_2008_78,TOUSSUS_LE_NOBLE,78620001.0,2.1135,48.750667,154.0,78.0
TRAPPES_2008_78,TRAPPES,78621001.0,2.009833,48.774333,167.0,78.0
TROYESBARBEREY_2008_10,TROYESBARBEREY,10030001.0,4.02,48.324667,112.0,10.0
TULLE_2008_19,TULLE,19272001.0,1.740333,45.2425,235.0,19.0
URDOS_RN134_2008_64,URDOS_RN134,64542006.0,-0.559167,42.823833,1074.0,64.0
UREPEL_SAPC_2008_64,UREPEL_SAPC,64543001.0,-1.4155,43.068667,410.0,64.0
USSELCOUZERGUES_2008_19,USSELCOUZERGUES,19275005.0,2.296667,45.558333,670.0,19.0
UZERCHE_2008_19,UZERCHE,19276006.0,1.568167,45.396333,422.0,19.0
VAILLY_SAULDRE_2008_18,VAILLY_SAULDRE,18269003.0,2.615833,47.453833,226.0,18.0
VALBONNESOPHIA_2008_06,VALBONNESOPHIA,6152002.0,7.0285,43.623167,238.0,6.0
VALDROME_2008_26,VALDROME,26361001.0,5.576667,44.505333,786.0,26.0
VALLERAUGUE_2008_30,VALLERAUGUE,30339002.0,3.641667,44.08,395.0,30.0
VALOGNES_2008_50,VALOGNES,50615001.0,-1.506667,49.517667,61.0,50.0
VALSLESBAINS_2008_07,VALSLESBAINS,7331001.0,4.360667,44.6695,283.0,7.0
VANNESSENE_2008_56,VANNESSENE,56243001.0,-2.714167,47.6045,3.0,56.0
VARENNESSTSA_2008_71,VARENNESSTSA,71558001.0,5.255333,46.529333,207.0,71.0
VAUVILLERS_2008_80,VAUVILLERS,80781001.0,2.711,49.834167,85.0,80.0
VAUXRENARD_2008_69,VAUXRENARD,69258001.0,4.6285,46.217,740.0,69.0
VERDILLE_2008_16,VERDILLE,16397001.0,-0.065,45.888333,88.0,16.0
VERNINES_2008_63,VERNINES,63451001.0,2.888333,45.669,1045.0,63.0
VICHERES_2008_28,VICHERES,28407001.0,0.910167,48.257833,235.0,28.0
VICHYCHARMEIL_2008_03,VICHYCHARMEIL,3060001.0,3.398667,46.166667,249.0,3.0
VIC_EN_BIGORRE_2008_65,VIC_EN_BIGORRE,65460002.0,0.045833,43.3755,219.0,65.0
VIERZON_2008_18,VIERZON,18279005.0,2.073167,47.237833,155.0,18.0
VILLACOUBLAY_2008_78,VILLACOUBLAY,78640001.0,2.204,48.7725,174.0,78.0
VILLAMPUY_2008_28,VILLAMPUY,28410001.0,1.492833,48.038333,131.0,28.0
VILLARDDELANS_2008_38,VILLARDDELANS,38548001.0,5.561,45.0785,1027.0,38.0
VILLAR_DARENE_2008_05,VILLAR_DARENE,5181002.0,6.361667,45.030833,1665.0,5.0
VILLAR_ST_PANCRACE_2008_05,VILLAR_ST_PANCRACE,5183001.0,6.640333,44.880333,1310.0,5.0
VILLEFORT_2008_48,VILLEFORT,48198001.0,3.928333,44.441667,620.0,48.0
VILLEFRANCHEDEROUERGUE_2008_12,VILLEFRANCHEDEROUERGUE,12300002.0,2.033333,44.35,252.0,12.0
VILLEMURLIN_2008_45,VILLEMURLIN,45340002.0,2.366167,47.6935,144.0,45.0
VILLEROY_2008_77,VILLEROY,77515001.0,2.773333,48.991667,109.0,77.0
VILLETTE_2008_54,VILLETTE,75119002.0,2.336667,48.868333,57.0,75.0
VILLIERSLEBAC_2008_91,VILLIERSLEBAC,91679001.0,2.1115,48.730333,147.0,91.0
VILLIERS_SAPC_2008_17,VILLIERS_SAPC,17477001.0,-0.152,45.9875,106.0,17.0
VIMPELLES_2008_77,VIMPELLES,77524001.0,3.151667,48.46,72.0,77.0
VINON_SUR_VERDON_2008_83,VINON_SUR_VERDON,83150002.0,5.782667,43.734,271.0,83.0
VINSOBRES_2008_26,VINSOBRES,26377002.0,5.058333,44.283333,210.0,26.0
VIRE_HIPPODROME_2008_14,VIRE_HIPPODROME,14762004.0,-0.899,48.850833,100.0,14.0
VISAN_2008_84,VISAN,84150001.0,4.9055,44.336667,141.0,84.0
VITROLLES_2008_05,VITROLLES,5184002.0,5.951667,44.408667,595.0,5.0
VOLMUNSTER_2008_57,VOLMUNSTER,57732001.0,7.381833,49.124,358.0,57.0
WALTENHEIMSURZORN_2008_67,WALTENHEIMSURZORN,67516001.0,7.61,48.7435,252.0,67.0
WANGENBOURG_SAPC_2008_67,WANGENBOURG_SAPC,67122001.0,7.307,48.6425,460.0,67.0
YSSINGEAUX_LEP_2008_43,YSSINGEAUX_LEP,43268005.0,4.123333,45.133833,898.0,43.0
