nom_fichier,station,id,longitude,latitude,altitude,departement
ABBEVILLE_2017_80,ABBEVILLE,80001005,1.835,50.106667,68,80
ACHERES_2017_78,ACHERES,78005002,2.126,48.983167,31,78
ADAST_2017_65,ADAST,65001001,-0.072167,42.972833,446,65
AHUN_LYCEE_2017_23,AHUN_LYCEE,23001001,2.029833,46.093333,460,23
AIGUESMORTES_2017_30,AIGUESMORTES,30003001,4.207,43.537167,1,30
AIX_EN_PROVENCE_2017_13,AIX_EN_PROVENCE,13001009,5.4245,43.5295,173,13
AJACCIOMILELLI_SAPC_2017_20,AJACCIOMILELLI_SAPC,20004014,8.720833,41.9385,86,20
AJACCIO_2017_20,AJACCIO,20004002,8.792667,41.918,5,20
ALBA_SA_2017_07,ALBA_SA,7005002,4.582833,44.538833,223,7
ALENCON_2017_61,ALENCON,61001001,0.110167,48.4455,143,61
ALLAINES_2017_28,ALLAINES,28002001,1.846833,48.1905,133,28
ALLANTNIVOSE_2017_73,ALLANTNIVOSE,73139401,6.211833,45.663833,1684,73
ALTIER_2017_48,ALTIER,48004001,3.852,44.494,900,48
AMBERT_2017_63,AMBERT,63003004,3.742667,45.516833,555,63
AMBOISE_LYCEE_2017_37,AMBOISE_LYCEE,37003004,0.977,47.394167,116,37
ANGERS_VILLE_2017_49,ANGERS_VILLE,49007011,-0.5605,47.4535,35,49
ANNONAY_2017_07,ANNONAY,7010001,4.6705,45.246167,336,7
ANTRAIGUES_SA_2017_07,ANTRAIGUES_SA,7011004,4.352167,44.712167,600,7
ARBOIS_SAPC_2017_39,ARBOIS_SAPC,39013004,5.740167,46.896,313,39
ARBRISSEL_2017_35,ARBRISSEL,35005001,-1.297333,47.927333,75,35
ARGENTAT_2017_19,ARGENTAT,19010001,1.9375,45.101333,190,19
ARGENTON_2017_36,ARGENTON,36006001,1.518333,46.586667,108,36
ARLES_2017_13,ARLES,13004003,4.693833,43.51,1,13
ARNAY_SAPC_2017_21,ARNAY_SAPC,21567001,4.498667,47.124833,396,21
ARVIEUX_2017_05,ARVIEUX,5007003,6.728,44.796,1825,5
ARZAL_2017_56,ARZAL,56004001,-2.382667,47.512667,26,56
ASCROS_2017_06,ASCROS,6005001,7.013667,43.922,1173,6
AUBIGNYSURNERE_2017_18,AUBIGNYSURNERE,18015003,2.427333,47.4995,176,18
AUBUSSON_SAPC_2017_23,AUBUSSON_SAPC,23008004,2.187833,45.957833,486,23
AUCH_2017_32,AUCH,32013005,0.601167,43.689,122,32
AUSSOISCLIM_2017_73,AUSSOISCLIM,73023001,6.744333,45.229833,1467,73
AUXERREPERRIGNY_2017_89,AUXERREPERRIGNY,89295001,3.549667,47.824667,152,89
AUZANCES_SAPC_2017_23,AUZANCES_SAPC,23013001,2.489333,46.0215,564,23
AVIGNON_2017_84,AVIGNON,84007005,4.9025,43.911333,34,84
AVIZECIVC_2017_51,AVIZECIVC,51029004,4.01,48.978,175,51
AVORD_2017_18,AVORD,18092001,2.642167,47.052167,175,18
AYZE_2017_74,AYZE,74024001,6.431333,46.0795,449,74
BALEMULHOUSE_2017_68,BALEMULHOUSE,68297001,7.51,47.614333,263,68
BALLON_SAPC_2017_90,BALLON_SAPC,90065003,6.842667,47.812667,1153,90
BARCELONNETTE_2017_04,BARCELONNETTE,4019005,6.65,44.388333,1135,4
BASTIA_SAPC_2017_20,BASTIA_SAPC,20033015,9.444833,42.704333,26,20
BAUDEMONT_SAPC_2017_71,BAUDEMONT_SAPC,71022001,4.296667,46.2765,337,71
BAZUSAURE_2017_65,BAZUSAURE,65075001,0.3485,42.857833,767,65
BEAUCOUZE_2017_49,BEAUCOUZE,49020001,-0.614333,47.479,50,49
BEAUFORTSGERV_2017_26,BEAUFORTSGERV,26035001,5.139,44.778,379,26
BEAUMONT_2017_74,BEAUMONT,82013001,0.99,43.886667,133,82
BEAUMONT_DU_LAC_2017_87,BEAUMONT_DU_LAC,87009003,1.863167,45.8015,670,87
BEAUVAISTILLE_2017_60,BEAUVAISTILLE,60639001,2.127167,49.4465,89,60
BELLECOTENIVOSE_2017_73,BELLECOTENIVOSE,73071403,6.771167,45.489,2992,73
BELLEGARDEEND_2017_26,BELLEGARDEEND,26047001,5.454333,44.535167,1017,26
BELLEGARDE_2017_01,BELLEGARDE,23020001,2.3,45.978333,588,23
BELLEISLEENTERRE_2017_22,BELLEISLEENTERRE,22005003,-3.3875,48.55,158,22
BELLE_ILELE_TALUT_2017_56,BELLE_ILELE_TALUT,56009001,-3.218333,47.294333,34,56
BENEVENT_SAPC_2017_23,BENEVENT_SAPC,23021001,1.6285,46.121,460,23
BERGERAC_2017_24,BERGERAC,24037002,0.483333,44.851667,51,24
BERGHEIMINRAE_2017_68,BERGHEIMINRAE,68028001,7.345833,48.216333,309,68
BERNAY_2017_27,BERNAY,72033002,-0.058333,48.071667,77,72
BESANCON_2017_25,BESANCON,25056001,5.988833,47.249,307,25
BESIGNAN_2017_26,BESIGNAN,26050001,5.317,44.3205,556,26
BESSEY_2017_21,BESSEY,21065001,4.743167,47.086,593,21
BEZIERSVIAS_2017_34,BEZIERSVIAS,34209002,3.352667,43.322,15,34
BIGNAN_2017_56,BIGNAN,56017002,-2.766667,47.883333,160,56
BLESMES_2017_02,BLESMES,2094001,3.462667,49.009667,222,2
BLOIS_2017_41,BLOIS,41281001,1.212333,47.6785,119,41
BLOYE_2017_74,BLOYE,74035001,5.944667,45.821667,375,74
BOCOGNANO_2017_20,BOCOGNANO,20040004,9.103333,42.104167,1019,20
BONNEVALNIVOSE_2017_73,BONNEVALNIVOSE,73040402,7.051167,45.351667,2741,73
BORDEAUXMERIGNAC_2017_33,BORDEAUXMERIGNAC,33281001,-0.691333,44.830667,47,33
BORMES_LES_MIMOSAS_2017_83,BORMES_LES_MIMOSAS,83019002,6.379333,43.195167,88,83
BOURBON_SAPC_2017_03,BOURBON_SAPC,3036002,3.0495,46.58,270,3
BOURDEAUX_2017_26,BOURDEAUX,26056001,5.142833,44.580167,432,26
BOURGANEUF_2017_23,BOURGANEUF,23030004,1.725833,45.942333,513,23
BOURG_ST_MAURICE_2017_73,BOURG_ST_MAURICE,73054001,6.763333,45.612667,865,73
BOURRANINRAE_2017_47,BOURRANINRAE,47038002,0.413167,44.331833,55,47
BRANNE_SAPC_2017_25,BRANNE_SAPC,25087002,6.472167,47.378,287,25
BROUZET_LES_ALES_2017_30,BROUZET_LES_ALES,30055001,4.284833,44.131167,603,30
BRUSQUE_SAPC_2017_12,BRUSQUE_SAPC,12039001,2.938667,43.7495,858,12
BUGEAT_2017_19,BUGEAT,19033001,1.930333,45.602667,694,19
BUIS_BARONNIES_2017_26,BUIS_BARONNIES,26063002,5.270667,44.277833,390,26
BURE_LES_TEMPLIERS_SAPC_2017_21,BURE_LES_TEMPLIERS_SAPC,21116002,4.948167,47.7195,461,21
BUSTINCE_ST_JEAN_2017_64,BUSTINCE_ST_JEAN,64155001,-1.2145,43.167333,179,64
BU_SAPC_2017_28,BU_SAPC,28064002,1.493167,48.8015,132,28
CAENCARPIQUET_2017_14,CAENCARPIQUET,14137001,-0.456167,49.18,67,14
CALACUCCIA_2017_20,CALACUCCIA,20047006,9.0215,42.3315,811,20
CALAISMARCK_2017_62,CALAISMARCK,62548001,1.966667,50.966667,3,62
CALVI_2017_20,CALVI,20050001,8.7915,42.5295,57,20
CAMBRAIEPINOY_2017_62,CAMBRAIEPINOY,62298001,3.163833,50.2255,76,62
CAMBREMER_2017_14,CAMBREMER,14126001,0.041833,49.1455,125,14
CAMPILE_SAPC_2017_20,CAMPILE_SAPC,20054002,9.353,42.494667,499,20
CANNES_2017_06,CANNES,6029003,7.066667,43.516667,10,6
CAPDELAHEVE_2017_76,CAPDELAHEVE,76552001,0.071167,49.509,100,76
CAPFERRET_2017_33,CAPFERRET,33236002,-1.252,44.630667,8,33
CAPTIEUXRETJONS_2017_40,CAPTIEUXRETJONS,40164004,-0.286167,44.185,131,40
CAP_BEAR_2017_66,CAP_BEAR,66148001,3.133667,42.515333,82,66
CAP_CORSE_2017_20,CAP_CORSE,20107001,9.3595,43.003833,72,20
CARCASSONNE_2017_11,CARCASSONNE,11069001,2.2955,43.215333,128,11
CARDET_2017_30,CARDET,30068001,4.079667,44.021,109,30
CARROS_SAPC_2017_06,CARROS_SAPC,6033002,7.209167,43.786667,78,6
CASSIS_2017_13,CASSIS,13022003,5.503167,43.222167,212,13
CASTELNAUDARY_2017_11,CASTELNAUDARY,11076003,1.953333,43.316667,160,11
CAUNESMINERVOIS_2017_11,CAUNESMINERVOIS,11081001,2.525167,43.345333,302,11
CAUSSOLS_2017_06,CAUSSOLS,6037002,6.923167,43.752333,1268,6
CAZATS_2017_33,CAZATS,33116001,-0.186167,44.463167,114,33
CEYZERIAT_SAPC_2017_01,CEYZERIAT_SAPC,1072001,5.287667,46.204333,260,1
CHAILLAC_SAPC_2017_36,CHAILLAC_SAPC,36035002,1.302167,46.456667,126,36
CHALONCHAMPFO_2017_71,CHALONCHAMPFO,71081001,4.825667,46.827,187,71
CHAMONIX_2017_74,CHAMONIX,74056001,6.8775,45.9295,1042,74
CHAMPAGNOLE_2017_39,CHAMPAGNOLE,39097003,5.886,46.756833,537,39
CHANGIS_2017_77,CHANGIS,77084001,3.011833,48.964667,70,77
CHANNAY_LATHAN_2017_37,CHANNAY_LATHAN,37055002,0.255333,47.4795,87,37
CHAPELLEDANG_SAPC_2017_18,CHAPELLEDANG_SAPC,18047001,2.426667,47.373833,190,18
CHAPELLEENVERCORS_SAPC_2017_26,CHAPELLEENVERCORS_SAPC,26074001,5.422167,44.9615,879,26
CHAPELLEGUILLAUME_SAPC_2017_28,CHAPELLEGUILLAUME_SAPC,28078001,0.905833,48.112,197,28
CHAREILCINTRAT_SAPC_2017_03,CHAREILCINTRAT_SAPC,3059001,3.225667,46.275833,286,3
CHARMES_SAPC_2017_03,CHARMES_SAPC,3061001,3.233667,46.0635,330,3
CHATEAUDUN_2017_28,CHATEAUDUN,28198001,1.376333,48.061333,126,28
CHATEAUNEUF_GRASSE_2017_06,CHATEAUNEUF_GRASSE,6038001,6.996167,43.678333,379,6
CHATEAU_CHINON_2017_58,CHATEAU_CHINON,58062001,3.934333,47.070333,598,58
CHATILLON_SEINE_2017_21,CHATILLON_SEINE,21154001,4.581333,47.849333,262,21
CHAUMONT_SAPC_2017_55,CHAUMONT_SAPC,55108004,5.264667,48.931333,294,55
CHAUXDESPRESINRAE_2017_39,CHAUXDESPRESINRAE,39130002,5.865,46.509,854,39
CHEILLE_2017_37,CHEILLE,37067003,0.403833,47.260833,60,37
CHERONNAC_SAPC_2017_87,CHERONNAC_SAPC,87044001,0.76,45.753833,295,87
CHEVRU_2017_77,CHEVRU,77113002,3.203333,48.726833,158,77
CHEYLARD_SA_2017_07,CHEYLARD_SA,7064001,4.4375,44.914833,418,7
CHINON_VITI_2017_37,CHINON_VITI,37072002,0.233833,47.184333,76,37
CHOMERAC_SA_RCE_2017_07,CHOMERAC_SA_RCE,7066001,4.648333,44.6995,216,7
CHUSCLAN_2017_30,CHUSCLAN,30081001,4.7,44.143333,63,30
CLAMECY_2017_58,CLAMECY,58079004,3.509,47.441,215,58
CLERMONTFD_2017_63,CLERMONTFD,63113001,3.149333,45.786833,331,63
COLDESSAISIES_2017_73,COLDESSAISIES,73132003,6.535333,45.755,1614,73
COLLOBRIERES_SAPC_2017_83,COLLOBRIERES_SAPC,83043005,6.258,43.232167,128,83
COLMARMEYENHEIM_2017_68,COLMARMEYENHEIM,68205001,7.407667,47.928667,207,68
COLOGNAC_2017_30,COLOGNAC,30087002,3.825,44.021833,589,30
COLOMBELAFOSSECIVC_2017_10,COLOMBELAFOSSECIVC,10102001,4.779667,48.261667,252,10
COMMERVEIL_SAPC_2017_72,COMMERVEIL_SAPC,72086001,0.353667,48.315333,105,72
COMPSSURARTUBY_2017_83,COMPSSURARTUBY,83044003,6.471333,43.658833,892,83
CONDOM_2017_32,CONDOM,32107006,0.336,43.974333,173,32
CONQUEYRAC_2017_30,CONQUEYRAC,30093003,3.9,43.9405,135,30
CONTAMINES_MJ_2017_74,CONTAMINES_MJ,74085001,6.728833,45.822333,1180,74
CORTE_2017_20,CORTE,20096008,9.193167,42.2885,350,20
COS_2017_09,COS,9099001,1.5645,42.970167,519,9
COURCITE_SAPC_2017_53,COURCITE_SAPC,53083001,-0.222333,48.318667,172,53
COURPIERE_2017_63,COURPIERE,63125001,3.533333,45.75,325,63
CROIX_MILLET_2017_07,CROIX_MILLET,7187001,4.241333,44.606333,779,7
CUDOT_SAPC_2017_89,CUDOT_SAPC,89133001,3.1775,47.983833,170,89
CUERS_2017_83,CUERS,83049005,6.131333,43.247667,72,83
CUY_SAINT_FIACRE_SAPC_2017_76,CUY_SAINT_FIACRE_SAPC,76208001,1.716,49.507833,104,76
DAX_2017_40,DAX,40088002,-1.055,43.706667,15,40
DEAUX_2017_30,DEAUX,30101001,4.143667,44.071833,185,30
DIE_2017_26,DIE,26113003,5.3435,44.767667,384,26
DIGNE_LES_BAINS_2017_04,DIGNE_LES_BAINS,4070009,6.186667,44.07,554,4
DIJONLONGVIC_2017_21,DIJONLONGVIC,21473001,5.088333,47.267833,219,21
DINARD_2017_35,DINARD,35228001,-2.076333,48.584833,65,35
DIVAJEU_2017_26,DIVAJEU,26115001,4.990333,44.726833,175,26
DONZERE_2017_26,DONZERE,26116001,4.711667,44.443333,90,26
DORANS_2017_90,DORANS,90035001,6.837,47.591667,401,90
DRAGUIGNAN_SAPC_2017_83,DRAGUIGNAN_SAPC,83050007,6.453333,43.526167,173,83
DUN_SAPC_2017_58,DUN_SAPC,58106005,4.046833,47.312833,598,58
DURBANCORBIERES_2017_11,DURBANCORBIERES,11124003,2.819167,42.993167,120,11
DURENQUE_SAPC_2017_12,DURENQUE_SAPC,12092001,2.6445,44.111833,812,12
EMBRUN_2017_05,EMBRUN,5046001,6.508667,44.571167,873,5
EPINAL_2017_88,EPINAL,88160003,6.446667,48.176667,365,88
ERNEE_2017_53,ERNEE,53096004,-0.9625,48.295667,168,53
ERNEVILLE_AUX_BOIS_SAPC_2017_55,ERNEVILLE_AUX_BOIS_SAPC,55179001,5.403833,48.7495,313,55
ESTABLES_2017_48,ESTABLES,48057002,3.5435,44.656667,1552,48
ESTREESMONSINRAE_2017_80,ESTREESMONSINRAE,80557001,3.031167,49.874833,87,80
ETOILE_2017_26,ETOILE,26124001,4.8895,44.819,145,26
EUS_2017_66,EUS,66074002,2.446333,42.630167,321,66
EVREUXHUEST_2017_27,EVREUXHUEST,27347001,1.221667,49.025,138,27
EYRAGUES_2017_13,EYRAGUES,13036003,4.834833,43.847167,17,13
EZE_2017_06,EZE,6059003,7.365833,43.738833,704,6
FANJEAUX_SAPC_2017_11,FANJEAUX_SAPC,11136001,2.07,43.202,182,11
FAYETLECHATEA_2017_63,FAYETLECHATEA,63157001,3.429167,45.696667,585,63
FECLAZ_SAPC_2017_73,FECLAZ_SAPC,73098003,5.983667,45.647167,1328,73
FEINS_SA_2017_35,FEINS_SA,35110003,-1.596833,48.326833,87,35
FELINES_SAPC_2017_43,FELINES_SAPC,43093001,3.742833,45.265833,1014,43
FELLETIN_2017_23,FELLETIN,23079002,2.186,45.880167,635,23
FELON_SAPC_2017_90,FELON_SAPC,90044001,6.984167,47.704333,383,90
FEURS_2017_42,FEURS,42094003,4.233833,45.7385,347,42
FIGARI_2017_20,FIGARI,20114002,9.103667,41.505167,20,20
FIXSTGENEYS_2017_43,FIXSTGENEYS,43095001,3.665,45.145833,1102,43
FLERS_2017_61,FLERS,61169003,-0.5895,48.75,195,61
FONDETTES_2017_37,FONDETTES,37109001,0.604167,47.425333,93,37
FONTAINEBLEAU_SAPC_2017_77,FONTAINEBLEAU_SAPC,77186002,2.6785,48.406,84,77
FONTAINEDUBER_SAPC_2017_63,FONTAINEDUBER_SAPC,63263005,2.991667,45.7995,971,63
FONTANNES_2017_43,FONTANNES,43096001,3.419667,45.300333,435,43
FORMIGUERES_2017_66,FORMIGUERES,66082004,2.111333,42.616,1495,66
FOUGEROLLES_SAPC_2017_70,FOUGEROLLES_SAPC,70245003,6.388833,47.8985,315,70
FREJUS_2017_83,FREJUS,73157004,6.674167,45.193667,1228,73
FREJUS_MONT_VINAIGRE_2017_83,FREJUS_MONT_VINAIGRE,83061007,6.8155,43.502667,560,83
FROTEY_SAPC_2017_70,FROTEY_SAPC,70261001,6.1965,47.639167,360,70
GALLARGUES_LE_MONTUEUX_2017_30,GALLARGUES_LE_MONTUEUX,30123001,4.171667,43.714833,17,30
GAP_2017_05,GAP,5061008,6.091667,44.568333,750,5
GELLES_2017_63,GELLES,63163001,2.799333,45.7535,784,63
GENERARGUES_2017_30,GENERARGUES,30129001,3.977667,44.073333,139,30
GENOLHAC_2017_30,GENOLHAC,30130001,3.9615,44.342833,519,30
GERMAINECIVC_2017_51,GERMAINECIVC,51266002,4.032333,49.123167,172,51
GERVANS_2017_26,GERVANS,26380002,4.828833,45.1125,157,26
GETS_LES_2017_74,GETS_LES,74134002,6.670333,46.158667,1172,74
GIROMAGNY_SAPC_2017_90,GIROMAGNY_SAPC,90052002,6.835,47.741667,473,90
GIRONVILLE_2017_77,GIRONVILLE,77207001,2.525,48.161667,98,77
GLANDAGE_SAPC_2017_26,GLANDAGE_SAPC,26142001,5.615167,44.674667,1007,26
GOURDON_2017_46,GOURDON,46127001,1.396667,44.745,260,46
GRAMMOND_SAPC_2017_42,GRAMMOND_SAPC,42102002,4.442833,45.564833,803,42
GRANDCHAMP_SAPC_2017_89,GRANDCHAMP_SAPC,89192001,3.1895,47.7815,180,89
GROSPIERRES_SA_2017_07,GROSPIERRES_SA,7101002,4.295833,44.4115,107,7
GUERANDE_2017_44,GUERANDE,44069002,-2.430167,47.292333,4,44
GUERETST_LAURENT_2017_23,GUERETST_LAURENT,23206002,1.950333,46.1755,365,23
GUERET_BONGEOT_2017_23,GUERET_BONGEOT,23096001,1.879333,46.1805,402,23
GUILLONVILLE_CA28_2017_28,GUILLONVILLE_CA28,28190001,1.666167,48.091333,132,28
HOUCHES_LES_2017_74,HOUCHES_LES,74143003,6.800667,45.8925,1004,74
HYERES_2017_83,HYERES,83069001,6.147,43.1005,2,83
ILE_DE_GROIX_2017_56,ILE_DE_GROIX,56069001,-3.502333,47.652333,41,56
ILE_DU_LEVANT_2017_83,ILE_DU_LEVANT,83069003,6.469333,43.0325,118,83
ILE_ROUSSE_2017_20,ILE_ROUSSE,20093002,8.922667,42.633167,142,20
ILLIERSCOMBRAY_SAPC_2017_28,ILLIERSCOMBRAY_SAPC,28196003,1.253167,48.2835,170,28
ISSOIRE_2017_63,ISSOIRE,63178001,3.262333,45.535333,372,63
ISTRES_2017_13,ISTRES,13047002,4.988333,43.513333,44,13
JEULESBOISAUTO_2017_36,JEULESBOISAUTO,36089003,1.798333,46.661667,185,36
JOUELESTOURS_2017_37,JOUELESTOURS,37122003,0.665333,47.337167,93,37
JOURS_LES_BAIGNEUX_SAPC_2017_21,JOURS_LES_BAIGNEUX_SAPC,21326001,4.596333,47.636,392,21
JOYEUSE_2017_07,JOYEUSE,7110003,4.238333,44.48,160,7
KERPERT_2017_22,KERPERT,22092001,-3.147667,48.404,281,22
LABECEDE_LAURAGAIS_SAPC_2017_11,LABECEDE_LAURAGAIS_SAPC,11181002,2.022167,43.3895,408,11
LABLACHERE_2017_07,LABLACHERE,7117002,4.208333,44.480833,295,7
LACAPELLEBIRON_2017_47,LACAPELLEBIRON,47123002,0.900333,44.585667,235,47
LACHAPELLEBOUEXIC_2017_35,LACHAPELLEBOUEXIC,35057003,-1.940833,47.9215,42,35
LALOUVESC_2017_07,LALOUVESC,7128001,4.535,45.117833,1090,7
LANDOSCHARBON_2017_43,LANDOSCHARBON,43111002,3.843667,44.858,1148,43
LANGRES_2017_52,LANGRES,52269001,5.3375,47.843667,466,52
LANNION_AERO_2017_22,LANNION_AERO,22113006,-3.468667,48.755333,85,22
LANOEBLANCHE_2017_35,LANOEBLANCHE,35202001,-1.765,47.780167,89,35
LANTOSQUE_SAPC_2017_06,LANTOSQUE_SAPC,6074005,7.307,43.972,550,6
LANVEOC_2017_29,LANVEOC,29120001,-4.439333,48.279333,81,29
LAONS_2017_28,LAONS,28206001,1.173167,48.706833,171,28
LAQUEUILLEINRAE_2017_63,LAQUEUILLEINRAE,63189005,2.744667,45.636,1095,63
LARAGNE_MONTEGLIN_2017_05,LARAGNE_MONTEGLIN,5070003,5.7945,44.319167,565,5
LASSEUBE_SAPC_2017_64,LASSEUBE_SAPC,64324002,-0.4855,43.2045,247,64
LA_BASTIDE_DES_JOURDANS_2017_84,LA_BASTIDE_DES_JOURDANS,84009002,5.615,43.787333,381,84
LA_BOISSAUDE_ROCHEJEAN_2017_25,LA_BOISSAUDE_ROCHEJEAN,25494001,6.322833,46.729,1222,25
LA_CHAPELLESAINTOUEN_SAPC_2017_76,LA_CHAPELLESAINTOUEN_SAPC,76171001,1.439833,49.538167,197,76
LA_COURONNE_2017_16,LA_COURONNE,16113001,0.099833,45.627833,58,16
LA_COURTINE_2017_23,LA_COURTINE,23067001,2.263667,45.702667,772,23
LA_DESTROUSSE_SAPC_2017_13,LA_DESTROUSSE_SAPC,13031002,5.601,43.386667,201,13
LA_FAURIE_2017_05,LA_FAURIE,5055001,5.750167,44.566667,825,5
LA_LOUPE_SAPC_2017_28,LA_LOUPE_SAPC,28214003,1.013333,48.481,200,28
LA_MASSE_2017_73,LA_MASSE,73257003,6.508333,45.297333,2800,73
LA_MOTTE_DU_CAIRE_2017_04,LA_MOTTE_DU_CAIRE,4134002,6.0305,44.326667,665,4
LA_MUREARGENS_2017_04,LA_MUREARGENS,4136001,6.520167,43.977,920,4
LA_PESSE_2017_39,LA_PESSE,39413001,5.843,46.302833,1133,39
LA_ROCHE_SUR_YON_2017_85,LA_ROCHE_SUR_YON,85191003,-1.381833,46.705,88,85
LA_SALLE_PRUNET_2017_48,LA_SALLE_PRUNET,48186001,3.650667,44.315667,903,48
LA_SOUTERRAINE_2017_23,LA_SOUTERRAINE,23176001,1.451833,46.2425,370,23
LA_VACQUERIE_SAPC_2017_34,LA_VACQUERIE_SAPC,34317001,3.457833,43.792,620,34
LERE_2017_18,LERE,18125004,2.893167,47.457833,139,18
LESRICEYSCIVC_2017_10,LESRICEYSCIVC,10317002,4.3305,47.981333,274,10
LES_MAYONS_SAPC_2017_83,LES_MAYONS_SAPC,83075001,6.358333,43.316833,147,83
LES_ROCHILLESNIVOSE_2017_73,LES_ROCHILLESNIVOSE,73306401,6.469,45.085,2444,73
LETOUQUET_2017_62,LETOUQUET,62826001,1.622833,50.5145,5,62
LEUCATE_2017_11,LEUCATE,11202001,3.059667,42.917333,42,11
LEVENS_2017_06,LEVENS,6075007,7.21,43.846333,691,6
LE_BOURGET_2017_95,LE_BOURGET,95088001,2.427667,48.967333,49,95
LE_BUISSON_2017_48,LE_BUISSON,48032002,3.221667,44.648333,1110,48
LE_CASTELLET_2017_83,LE_CASTELLET,83035001,5.784667,43.252167,417,83
LE_FIED_SAPC_2017_39,LE_FIED_SAPC,39225002,5.717333,46.768167,522,39
LE_LUART_2017_72,LE_LUART,72172001,0.583333,48.076667,95,72
LE_LUC_2017_83,LE_LUC,83031001,6.386167,43.383167,80,83
LE_MASSEGROS_2017_48,LE_MASSEGROS,48094001,3.165667,44.295667,890,48
LE_MAS_2017_06,LE_MAS,6081001,6.809333,43.813667,1525,6
LE_MERLERAULT_SAPC_2017_61,LE_MERLERAULT_SAPC,61275001,0.299,48.711167,236,61
LE_MONTDORE_BG_2017_63,LE_MONTDORE_BG,63236002,2.807,45.5745,1050,63
LE_MONTDORE_SAPC_2017_63,LE_MONTDORE_SAPC,63236003,2.8125,45.551833,1220,63
LE_PERTHUS_2017_66,LE_PERTHUS,66137003,2.8595,42.473333,295,66
LE_PLESSIS_GASSOT_2017_95,LE_PLESSIS_GASSOT,95492001,2.406667,49.040333,108,95
LE_TECH_LA_LLAU_SAPC_2017_66,LE_TECH_LA_LLAU_SAPC,66206004,2.5125,42.439833,927,66
LE_VIEUX_CERIER_SAPC_2017_16,LE_VIEUX_CERIER_SAPC,16403001,0.442,45.9675,162,16
LIGRE_2017_37,LIGRE,37129002,0.273,47.112333,67,37
LIMERAY_2017_37,LIMERAY,37131002,1.011833,47.461167,113,37
LIMOGESBELLEGARDE_2017_87,LIMOGESBELLEGARDE,87085006,1.175,45.861167,402,87
LINTHAL_SAPC_2017_68,LINTHAL_SAPC,68188002,7.114,47.9415,488,68
LIVRY_2017_14,LIVRY,14372001,-0.7665,49.099167,194,14
LOMNE_SAPC_2017_65,LOMNE_SAPC,65278001,0.298167,43.042833,447,65
LONS_LE_SAUNIER_2017_39,LONS_LE_SAUNIER,39362001,5.517667,46.692833,298,39
LORIENTLANN_BIHOUE_2017_56,LORIENTLANN_BIHOUE,56185001,-3.435667,47.762833,45,56
LORMES_SAPC_2017_58,LORMES_SAPC,58145002,3.858333,47.267167,485,58
LOUBARESSE_2017_07,LOUBARESSE,15108001,3.211667,44.933333,710,15
LOUDERVIELLE_2017_65,LOUDERVIELLE,65283001,0.439667,42.7965,1587,65
LOUVIGNEDUDESERT_2017_35,LOUVIGNEDUDESERT,35162003,-1.129833,48.479333,153,35
LOUVILLE_2017_28,LOUVILLE,28215001,1.816833,48.329333,145,28
LUCHEPRINGE_2017_72,LUCHEPRINGE,72175002,0.088167,47.713,92,72
LUXEUIL_2017_70,LUXEUIL,70473001,6.363833,47.787,271,70
LYONBRON_2017_69,LYONBRON,69029001,4.949167,45.721333,202,69
LYONST_EXUPERY_2017_69,LYONST_EXUPERY,69299001,5.077833,45.7265,235,69
MACON_2017_71,MACON,71270004,4.83,46.308333,216,71
MAGNANVILLE_2017_78,MAGNANVILLE,78354001,1.674167,48.963667,123,78
MAICHE_2017_25,MAICHE,25356003,6.791,47.243,825,25
MARCE_2017_49,MARCE,49188001,-0.317,47.561833,53,49
MARIGNANA_2017_20,MARIGNANA,20154001,8.655333,42.188833,515,20
MARIGNANE_2017_13,MARIGNANE,13054001,5.216,43.437667,9,13
MARSEILLE_2017_13,MARSEILLE,13055029,5.479167,43.310667,192,13
MARSILLARGUES_2017_34,MARSILLARGUES,34151003,4.178333,43.665,2,34
MARTIGNEBRIAND_2017_49,MARTIGNEBRIAND,49191001,-0.435833,47.2525,73,49
MATOUR_SAPC_2017_71,MATOUR_SAPC,71289001,4.480333,46.304,415,71
MAURON_2017_56,MAURON,56127001,-2.285667,48.065667,74,56
MAUROUX_2017_32,MAUROUX,32248001,0.824833,43.906833,201,32
MAUVEZINSURGUPIE_2017_47,MAUVEZINSURGUPIE,47163001,0.160333,44.5615,95,47
MEGEVE_2017_74,MEGEVE,74173001,6.608167,45.855333,1080,74
MEJANNESLECLAP_2017_30,MEJANNESLECLAP,30164001,4.331,44.216333,313,30
MENAT_2017_63,MENAT,63223001,2.91,46.105167,410,63
MENDE_2017_48,MENDE,48095003,3.498333,44.518333,709,48
MENTON_2017_06,MENTON,6083005,7.488667,43.785833,216,6
MERDRIGNAC_2017_22,MERDRIGNAC,22147005,-2.408333,48.191667,135,22
METZROBERT_SAPC_2017_10,METZROBERT_SAPC,10241001,4.101167,48.0745,140,10
MILLAU_2017_12,MILLAU,12145001,3.0195,44.1185,712,12
MIMET_2017_13,MIMET,13062002,5.499667,43.4185,416,13
MIRABEL_SA_2017_07,MIRABEL_SA,7159001,4.497333,44.5815,275,7
MOLESMES_SAPC_2017_89,MOLESMES_SAPC,89260001,3.463833,47.610333,355,89
MOLLANSSOUVEZ_2017_26,MOLLANSSOUVEZ,26188001,5.183167,44.234167,280,26
MONTBARD_SAPC_2017_21,MONTBARD_SAPC,21425001,4.3305,47.6285,209,21
MONTBELLAYINRAE_2017_49,MONTBELLAYINRAE,49215002,-0.1415,47.13,58,49
MONTBEUGNY_2017_03,MONTBEUGNY,3180001,3.423167,46.536333,275,3
MONTCLAR_SAPC_2017_04,MONTCLAR_SAPC,4126001,6.333333,44.391833,1197,4
MONTCLUS_2017_30,MONTCLUS,30175001,4.430333,44.268,120,30
MONTFORTSURARGENS_SAPC_2017_83,MONTFORTSURARGENS_SAPC,83083001,6.127,43.469667,141,83
MONTMORILLON_2017_86,MONTMORILLON,86165001,0.86,46.416667,152,86
MONTPELLIERAEROPORT_2017_34,MONTPELLIERAEROPORT,34154001,3.964667,43.576167,1,34
MONTREUIL_2017_10,MONTREUIL,10255002,4.275833,48.217333,150,10
MONTRIEUX_2017_41,MONTRIEUX,41152001,1.7305,47.535833,96,41
MONT_AIGOUAL_2017_30,MONT_AIGOUAL,30339001,3.5815,44.121333,1567,30
MORTAGNESURGIRONDE_SAPC_2017_17,MORTAGNESURGIRONDE_SAPC,17248001,-0.789833,45.477667,37,17
MOUROUX_SAPC_2017_77,MOUROUX_SAPC,77320002,3.057,48.847167,148,77
MOUTHOUMET_2017_11,MOUTHOUMET,11260001,2.525,42.96,558,11
MTSTVINCENT_2017_71,MTSTVINCENT,71320001,4.477,46.627667,601,71
MURAT_SUR_VEBRE_2017_81,MURAT_SUR_VEBRE,81192005,2.8255,43.633333,1022,81
MURS_2017_84,MURS,36136001,1.168333,46.925,148,36
MURVIEL_LES_BEZIERS_2017_34,MURVIEL_LES_BEZIERS,34178001,3.146,43.476,140,34
NANCYESSEY_2017_54,NANCYESSEY,54526001,6.2215,48.687833,212,54
NANCYOCHEY_2017_54,NANCYOCHEY,54405001,5.959833,48.581,336,54
NANTESBOUGUENAIS_2017_44,NANTESBOUGUENAIS,44020001,-1.608833,47.15,26,44
NANTIAT_2017_87,NANTIAT,87103002,1.180667,46.004667,335,87
NASBINALS_2017_48,NASBINALS,48104002,2.9955,44.642,1284,48
NEUILLYLEVEQUE_SAPC_2017_52,NEUILLYLEVEQUE_SAPC,52348003,5.435833,47.918,353,52
NEVERSMARZY_2017_58,NEVERSMARZY,58160001,3.112667,46.998333,175,58
NICE_2017_06,NICE,6088013,7.270667,43.6965,16,6
NIMESCOURBESSAC_2017_30,NIMESCOURBESSAC,30189001,4.406333,43.856833,59,30
NIMESGARONS_2017_30,NIMESGARONS,30258001,4.412833,43.772833,94,30
NOIRMOUTIER_EN_2017_85,NOIRMOUTIER_EN,85163001,-2.257167,47.004667,3,85
NORTSURERDRE_2017_44,NORTSURERDRE,44110002,-1.513667,47.425167,13,44
NOTREDAME_DE_BLIQUETUIT_2017_76,NOTREDAME_DE_BLIQUETUIT,76473001,0.770667,49.494,4,76
NOVILLARD_SAPC_2017_90,NOVILLARD_SAPC,90074001,6.962167,47.603833,366,90
OCTEVILLE_2017_76,OCTEVILLE,76481001,0.091667,49.533,90,76
OCTON_2017_34,OCTON,34186001,3.306167,43.655,184,34
OISEMONT_SAPC_2017_80,OISEMONT_SAPC,80606002,1.77,49.956833,121,80
OLETTA_2017_20,OLETTA,20185003,9.3205,42.632333,75,20
OLORON_2017_64,OLORON,64422007,-0.5795,43.1595,295,64
ORANGE_2017_84,ORANGE,84087001,4.861,44.1445,57,84
ORLY_2017_91,ORLY,91027002,2.397,48.718,86,91
ORTHEZ_2017_64,ORTHEZ,64430001,-0.771667,43.49,87,64
OUROUER_2017_18,OUROUER,58204001,3.305,47.058667,262,58
PAGNYLECHATEAU_2017_21,PAGNYLECHATEAU,21131001,5.190667,47.043167,182,21
PALAMINY_2017_31,PALAMINY,31406002,1.05,43.2,243,31
PARISMONTSOURIS_2017_75,PARISMONTSOURIS,75114001,2.337833,48.821667,75,75
PAUUZEIN_2017_64,PAUUZEIN,64549001,-0.416333,43.385,183,64
PEILLE_2017_06,PEILLE,6091004,7.4,43.8,672,6
PEIRA_CAVA_2017_06,PEIRA_CAVA,6077006,7.363333,43.929167,1443,6
PEISEY_NANCROIX_2017_73,PEISEY_NANCROIX,73197001,6.7565,45.544,1350,73
PEONE_2017_06,PEONE,6094002,6.930833,44.099667,1784,6
PEYROLLES_EN_PROVENCE_2017_13,PEYROLLES_EN_PROVENCE,13074003,5.607,43.656667,217,13
PEYRUSSEGRANDE_2017_32,PEYRUSSEGRANDE,32315001,0.222,43.616667,254,32
PEZENASTOURBES_2017_34,PEZENASTOURBES,34311001,3.400333,43.437667,40,34
PHALSBOURG_SAPC_2017_57,PHALSBOURG_SAPC,57168001,7.305833,48.766667,377,57
PIERREBUFFIERE_2017_87,PIERREBUFFIERE,87119002,1.358333,45.696667,253,87
PIETRALBA_2017_20,PIETRALBA,20223001,9.172,42.541,510,20
PILAT_GRAIX_2017_42,PILAT_GRAIX,42101001,4.559833,45.361167,1164,42
PIN_AU_HARASINRAE_2017_61,PIN_AU_HARASINRAE,61328001,0.180833,48.725,202,61
PIONSAT_2017_63,PIONSAT,63281001,2.687833,46.104833,524,63
PIPAY_SAPC_2017_38,PIPAY_SAPC,38504002,6.016,45.265333,1578,38
PLAN_DAUPS_STE_BAUME_SAPC_2017_83,PLAN_DAUPS_STE_BAUME_SAPC,83093005,5.728333,43.342667,605,83
PLOUAYSA_2017_56,PLOUAYSA,56166005,-3.3445,47.916167,75,56
PLOUGUENAST_2017_22,PLOUGUENAST,22219001,-2.708333,48.28,150,22
PLOUMANACH_2017_22,PLOUMANACH,22168001,-3.473167,48.825833,55,22
POMMERITJAUDY_2017_22,POMMERITJAUDY,22247001,-3.245,48.741667,50,22
PONTARION_SAPC_2017_23,PONTARION_SAPC,23155001,1.852833,45.995667,455,23
PONTIVY_AERODROME_2017_56,PONTIVY_AERODROME,56151001,-2.916667,48.055667,125,56
PONTOISE_AERO_2017_95,PONTOISE_AERO,95078001,2.0285,49.090333,87,95
PORQUEROLLES_2017_83,PORQUEROLLES,83069002,6.226833,43.0,135,83
POUANCE_SAPC_2017_49,POUANCE_SAPC,49248003,-1.188333,47.74,96,49
POUILLY_EN_AUX_SAPC_2017_21,POUILLY_EN_AUX_SAPC,21501003,4.561,47.251333,412,21
PRADES_LE_LEZ_2017_34,PRADES_LE_LEZ,34217001,3.866667,43.718333,69,34
PREENPAIL_SAPC_2017_53,PREENPAIL_SAPC,53185001,-0.183167,48.452,277,53
PRESTEVROULT_2017_28,PRESTEVROULT,28305001,1.4675,48.181333,129,28
PUGET_THENIERS_SAPC_2017_06,PUGET_THENIERS_SAPC,6099004,6.892333,43.956833,449,6
PUJAUT_2017_30,PUJAUT,30209001,4.775,44.005,110,30
PUYCELSI_2017_81,PUYCELSI,81217002,1.680667,43.981,260,81
QUENZA_2017_20,QUENZA,20254006,9.142833,41.777667,932,20
QUIMPER_2017_29,QUIMPER,29232002,-4.108333,47.995,60,29
REGUSSE_2017_83,REGUSSE,83102001,6.128333,43.655,525,83
REMUZAT_2017_26,REMUZAT,26264002,5.367,44.431667,475,26
RENNESST_JACQUES_2017_35,RENNESST_JACQUES,35281001,-1.734,48.068833,36,35
RENNO_2017_20,RENNO,20258001,8.807167,42.190167,755,20
RIEC_SUR_BELON_2017_29,RIEC_SUR_BELON,29236001,-3.709167,47.879,77,29
RIMPLAS_SAPC_2017_06,RIMPLAS_SAPC,6102001,7.1335,44.067167,1130,6
ROANNERIORGES_AERO_2017_42,ROANNERIORGES_AERO,42253001,4.0045,46.055,337,42
RODEZAVEYRON_2017_12,RODEZAVEYRON,12254001,2.4825,44.410333,578,12
ROISSY_2017_95,ROISSY,95527001,2.534333,49.015167,108,95
ROMANS_SAPC_2017_26,ROMANS_SAPC,26281001,4.998667,45.050167,156,26
ROMORANTIN_2017_41,ROMORANTIN,41194001,1.746667,47.36,104,41
ROSANS_2017_05,ROSANS,5126001,5.462167,44.3875,625,5
ROSNAY_2017_36,ROSNAY,36173002,1.249833,46.703,109,36
ROSTRENEN_2017_22,ROSTRENEN,22266001,-3.295333,48.226667,236,22
ROUESSEVASSE_2017_72,ROUESSEVASSE,72255001,-0.225667,48.139333,206,72
ROUSSES_SAPC_2017_48,ROUSSES_SAPC,48130002,3.5845,44.206833,812,48
ROUVROYENSANTERRE_2017_80,ROUVROYENSANTERRE,80682001,2.698333,49.765167,95,80
RUSIO_SAPC_2017_20,RUSIO_SAPC,20264002,9.2645,42.364167,860,20
SABLE_SUR_SARTH_2017_72,SABLE_SUR_SARTH,72264001,-0.302667,47.840167,41,72
SABRES_2017_40,SABRES,40246003,-0.859,44.153667,81,40
SAINTES_2017_17,SAINTES,17415003,-0.652,45.761167,38,17
SAINTE_GEMME_LA_PLAINE_SAPC_2017_85,SAINTE_GEMME_LA_PLAINE_SAPC,85216001,-1.121333,46.440167,3,85
SAINTLOUP_SAPC_2017_23,SAINTLOUP_SAPC,23209001,2.2645,46.140667,440,23
SAINTMAIXENTLECOLE_SAPC_2017_79,SAINTMAIXENTLECOLE_SAPC,79270003,-0.210333,46.417,83,79
SAINT_AVIT_SAPC_2017_63,SAINT_AVIT_SAPC,63320001,2.5265,45.872833,724,63
SAINT_DIDIER_SAPC_2017_03,SAINT_DIDIER_SAPC,3226001,3.850167,46.365333,293,3
SAINT_GERMAIN_SAPC_2017_72,SAINT_GERMAIN_SAPC,72284001,0.093,48.301333,85,72
SALLES_DE_BARB_2017_16,SALLES_DE_BARB,16360001,-0.111667,45.45,71,16
SALON_DE_PROVENCE_2017_13,SALON_DE_PROVENCE,13103001,5.108,43.612833,58,13
SAMPOLO_2017_20,SAMPOLO,20268001,9.123,41.943,837,20
SARI_DORCINO_2017_20,SARI_DORCINO,20270001,8.802333,42.0785,407,20
SARTENE_2017_20,SARTENE,20272004,8.979333,41.652333,62,20
SARZEAU_SA_2017_56,SARZEAU_SA,56240003,-2.796,47.510667,35,56
SAULGOND_SAPC_2017_16,SAULGOND_SAPC,16363001,0.781667,45.956333,228,16
SAULIEU_2017_21,SAULIEU,21584001,4.215,47.264167,586,21
SAUNAY_2017_37,SAUNAY,37240001,0.931333,47.590333,109,37
SAUTERNES_2017_33,SAUTERNES,33504001,-0.326833,44.544333,65,33
SAUXILLANGES_2017_63,SAUXILLANGES,63415001,3.368833,45.551333,460,63
SAVIGNY_VERON_2017_37,SAVIGNY_VERON,37242002,0.149333,47.227,33,37
SAYAT_SAPC_2017_63,SAYAT_SAPC,63417001,3.045167,45.839667,550,63
SEDERON_2017_26,SEDERON,26340001,5.538833,44.202333,804,26
SEGRE_SAPC_2017_49,SEGRE_SAPC,49331003,-0.873333,47.679167,25,49
SEILLANS_2017_83,SEILLANS,83124002,6.622167,43.580167,278,83
SEMUR_EN_AUXOIS_SAPC_2017_21,SEMUR_EN_AUXOIS_SAPC,21603001,4.34,47.482,314,21
SERRALONGUE_2017_66,SERRALONGUE,66194002,2.557833,42.399833,700,66
SERVOZ_2017_74,SERVOZ,74266001,6.767333,45.931167,815,74
SETE_2017_34,SETE,34301002,3.692167,43.397333,75,34
SIBIRIL_S_A_2017_29,SIBIRIL_S_A,29276001,-4.0775,48.660333,58,29
SISTERON_2017_04,SISTERON,4209005,5.916,44.2245,500,4
SOCOA_2017_64,SOCOA,64189001,-1.6865,43.3945,21,64
SOLENZARA_2017_20,SOLENZARA,20342001,9.400833,41.921833,12,20
SOSPEL_2017_06,SOSPEL,6136005,7.433667,43.862833,843,6
SOULAINES_2017_10,SOULAINES,10372001,4.671333,48.399333,138,10
STAGREVE_RAD_2017_07,STAGREVE_RAD,7204008,4.368,44.997833,1014,7
STAUBAN_2017_26,STAUBAN,26292002,5.409833,44.294833,625,26
STBARTHELEMYV_SAPC_2017_26,STBARTHELEMYV_SAPC,26295001,4.9025,45.173833,203,26
STCHRISTOPHEL_SAPC_2017_26,STCHRISTOPHEL_SAPC,26298001,5.071833,45.229333,452,26
STCHRISTOPHESURNAIS_2017_37,STCHRISTOPHESURNAIS,37213003,0.464333,47.6155,107,37
STCOMEDOLT_2017_12,STCOMEDOLT,12216001,2.827833,44.514667,380,12
STEPAIN_2017_37,STEPAIN,37216002,0.604833,47.157167,112,37
STETIENNEVALLEEFRANCAISE_2017_48,STETIENNEVALLEEFRANCAISE,48148004,3.854167,44.165833,518,48
STE_MARIE_DU_MO_2017_50,STE_MARIE_DU_MO,50509002,-1.168333,49.4045,5,50
STGENESCHPLLEINRAE_2017_63,STGENESCHPLLEINRAE,63345002,3.019333,45.723,893,63
STGERMAINL_AR_2017_69,STGERMAINL_AR,69208001,4.6045,45.869333,370,69
STGERMAINL_HE_2017_63,STGERMAINL_HE,63353003,3.532667,45.461,1070,63
STGERVAISD_AU_2017_63,STGERVAISD_AU,63354004,2.803833,46.032667,705,63
STMARCELLESVINRAE_2017_26,STMARCELLESVINRAE,26313001,4.931333,44.980167,190,26
STMARTIN_DE_BELLEVILLE_2017_73,STMARTIN_DE_BELLEVILLE,73257001,6.5105,45.368167,1443,73
STMAURICELESCOUCHES_SAPC_2017_71,STMAURICELESCOUCHES_SAPC,71464001,4.594833,46.881833,300,71
STMAUR_2017_94,STMAUR,94068001,2.492333,48.808667,48,94
STMEMELETENU_2017_44,STMEMELETENU,44181001,-1.7825,47.005667,4,44
STNICOLASDEBOURGUEIL_2017_37,STNICOLASDEBOURGUEIL,37228001,0.107833,47.29,44,37
STNICOLAS_2017_03,STNICOLAS,82169001,1.026667,44.055,82,82
STPIERRESTJEAN_2017_07,STPIERRESTJEAN,7284001,4.108333,44.456667,650,7
STPIERREVILLE_2017_07,STPIERREVILLE,7286002,4.485,44.814333,560,7
STSORLINENVA_2017_26,STSORLINENVA,26330001,4.930333,45.271167,237,26
STSULPICE_2017_63,STSULPICE,91578001,2.178333,48.541667,76,91
ST_ANDRE_2017_89,ST_ANDRE,58229001,3.845,47.398333,275,58
ST_ANDRE_DE_SANGONIS_2017_34,ST_ANDRE_DE_SANGONIS,34239002,3.507833,43.664167,86,34
ST_AUBAN_2017_04,ST_AUBAN,4049001,5.989667,44.062167,458,4
ST_AUPRE_SAPC_2017_38,ST_AUPRE_SAPC,38362001,5.657333,45.392667,450,38
ST_BRIEUC_2017_22,ST_BRIEUC,22372001,-2.852,48.534667,135,22
ST_CANNAT_2017_13,ST_CANNAT,13091001,5.251333,43.591333,198,13
ST_CEZAIRE_SUR_SIAGNE_2017_06,ST_CEZAIRE_SUR_SIAGNE,6118002,6.809,43.678667,694,6
ST_CHRISTOL_2017_84,ST_CHRISTOL,84107002,5.492833,44.040667,836,84
ST_CREPIN_2017_05,ST_CREPIN,24392001,1.276667,44.958333,270,24
ST_DIZIERLEVEQUE_SAPC_2017_90,ST_DIZIERLEVEQUE_SAPC,90090001,6.958833,47.467333,553,90
ST_ETIENNE_DE_TINEE_SAPC_2017_06,ST_ETIENNE_DE_TINEE_SAPC,6120004,6.921167,44.257667,1150,6
ST_FLOUR_2017_15,ST_FLOUR,15187006,3.067333,45.024333,909,15
ST_GIRONS_2017_09,ST_GIRONS,9289001,1.106833,43.005333,414,9
ST_JEANSTNICOLAS_2017_05,ST_JEANSTNICOLAS,5145002,6.209833,44.670833,1210,5
ST_JEAN_DE_MINERVOIS_2017_34,ST_JEAN_DE_MINERVOIS,34269001,2.857667,43.385667,258,34
ST_JEAN_DU_GARD_2017_30,ST_JEAN_DU_GARD,30269006,3.872,44.1105,196,30
ST_JULIEN_DE_PEYROLAS_2017_30,ST_JULIEN_DE_PEYROLAS,30273001,4.579333,44.277,71,30
ST_JUNIEN_2017_87,ST_JUNIEN,87154003,0.917,45.900833,271,87
ST_LEGER_LA_MONTAGNE_SAPC_2017_87,ST_LEGER_LA_MONTAGNE_SAPC,87159002,1.459667,46.035333,664,87
ST_LEONARD_NOBL_2017_87,ST_LEONARD_NOBL,87161002,1.4965,45.828667,346,87
ST_MARTIN_DE_FRESSENGEAS_2017_24,ST_MARTIN_DE_FRESSENGEAS,24453001,0.848333,45.4755,277,24
ST_MARTIN_DE_LONDRES_2017_34,ST_MARTIN_DE_LONDRES,34274001,3.729333,43.7795,214,34
ST_MAURICE_2017_54,ST_MAURICE,88426001,6.823333,47.856667,660,88
ST_MICHEL_MAUR_SAPC_2017_73,ST_MICHEL_MAUR_SAPC,73261003,6.4645,45.218167,698,73
ST_M_HINX_STNAINRAE_2017_40,ST_M_HINX_STNAINRAE,40272002,-1.299333,43.570833,37,40
ST_NAZAIREMONTOIR_2017_44,ST_NAZAIREMONTOIR,44103001,-2.1545,47.313833,3,44
ST_OUENLESPAREY_SAPC_2017_88,ST_OUENLESPAREY_SAPC,88430001,5.7745,48.188833,329,88
ST_PAUL_DE_FENOUILLET_2017_66,ST_PAUL_DE_FENOUILLET,66187006,2.485333,42.8205,300,66
ST_QUENTIN_2017_02,ST_QUENTIN,2320001,3.206,49.818333,98,2
ST_ROMANDIOIS_2017_26,ST_ROMANDIOIS,26327001,5.428333,44.693833,545,26
ST_SAUVEUR_CAMPRIEU_2017_30,ST_SAUVEUR_CAMPRIEU,30297001,3.4745,44.119333,1107,30
ST_SIGISMOND_2017_74,ST_SIGISMOND,74252001,6.612167,46.076333,1020,74
ST_YAN_2017_71,ST_YAN,71491001,4.0165,46.408333,242,71
SUBLAINES_2017_37,SUBLAINES,37253001,0.993167,47.265,111,37
SUPERBESSE_2017_63,SUPERBESSE,63038002,2.865833,45.501667,1287,63
SURIN_SAPC_2017_79,SURIN_SAPC,79320002,-0.460333,46.459667,100,79
TALLARD_2017_05,TALLARD,5170001,6.033333,44.452167,593,5
TANUS_2017_81,TANUS,81292001,2.279667,44.107167,537,81
TARBESLOURDESPYRENEES_2017_65,TARBESLOURDESPYRENEES,65344001,0.0,43.188,360,65
TAURINYA_2017_66,TAURINYA,66204002,2.4105,42.580333,770,66
TAUVES_2017_63,TAUVES,63426001,2.595667,45.544667,851,63
TAVAUX_SA_2017_39,TAVAUX_SA,39526003,5.427333,47.043833,195,39
THENON_2017_24,THENON,24550003,1.0385,45.112667,265,24
TILCHATEL_SAPC_2017_21,TILCHATEL_SAPC,21638002,5.2075,47.544833,283,21
TORCY_2017_71,TORCY,71540001,4.466667,46.766667,322,71
TORCY_2017_77,TORCY,71540001,4.466667,46.766667,322,71
TORTEZAIS_SAPC_2017_03,TORTEZAIS_SAPC,3285001,2.857,46.451333,256,3
TOURS_2017_37,TOURS,37179001,0.727333,47.4445,108,37
TOUR_EIFFEL_2017_75,TOUR_EIFFEL,75107005,2.2945,48.858333,330,75
TOUSSUS_LE_NOBLE_2017_78,TOUSSUS_LE_NOBLE,78620001,2.1135,48.750667,154,78
TRAPPES_2017_78,TRAPPES,78621001,2.009833,48.774333,167,78
TRESSON_SAPC_2017_72,TRESSON_SAPC,72361001,0.5595,47.885333,154,72
TRETS_2017_13,TRETS,13110003,5.698667,43.445333,264,13
TRIAUCOURT_SAPC_2017_55,TRIAUCOURT_SAPC,55517002,5.065167,48.983167,185,55
TROYESBARBEREY_2017_10,TROYESBARBEREY,10030001,4.02,48.324667,112,10
UZES_2017_30,UZES,30334001,4.42,44.005,138,30
VACHERESSE_2017_74,VACHERESSE,74286001,6.669833,46.316333,790,74
VALBONNESOPHIA_2017_06,VALBONNESOPHIA,6152002,7.0285,43.623167,238,6
VALENCECHABEUI_2017_26,VALENCECHABEUI,26064001,4.971833,44.914833,163,26
VALENSOLE_2017_04,VALENSOLE,4230002,5.986667,43.843333,545,4
VALOGNES_2017_50,VALOGNES,50615001,-1.506667,49.517667,61,50
VALSLESBAINS_2017_07,VALSLESBAINS,7331001,4.360667,44.6695,283,7
VAL_DISERE_JOS_2017_73,VAL_DISERE_JOS,73304005,6.978167,45.444833,1850,73
VANNESMEUCON_2017_56,VANNESMEUCON,56137001,-2.727,47.722,132,56
VANNESSENE_2017_56,VANNESSENE,56243001,-2.714167,47.6045,3,56
VARENNESSTSA_2017_71,VARENNESSTSA,71558001,5.255333,46.529333,207,71
VARZY_SAPC_2017_58,VARZY_SAPC,58304005,3.386,47.368333,226,58
VATRYAERO_2017_51,VATRYAERO,51595002,4.164667,48.777167,179,51
VAUVENARGUES_2017_13,VAUVENARGUES,13111002,5.68,43.551,565,13
VENDAYSMONTALIVE_2017_33,VENDAYSMONTALIVE,33540001,-1.119167,45.378667,6,33
VERNINES_2017_63,VERNINES,63451001,2.888333,45.669,1045,63
VERNOUX_SA_2017_07,VERNOUX_SA,7338005,4.626667,44.893333,510,7
VERSAILLES_INRAE_2017_78,VERSAILLES_INRAE,78646002,2.09,48.803333,121,78
VERT_TOULONCIVC_2017_51,VERT_TOULONCIVC,51611001,3.906,48.84,155,51
VICHYCHARMEIL_2017_03,VICHYCHARMEIL,3060001,3.398667,46.166667,249,3
VICHYVILLE_2017_03,VICHYVILLE,3310001,3.439,46.117667,255,3
VILLACOUBLAY_2017_78,VILLACOUBLAY,78640001,2.204,48.7725,174,78
VILLAR_ST_PANCRACE_2017_05,VILLAR_ST_PANCRACE,5183001,6.640333,44.880333,1310,5
VILLENAVE_DORNONINRAE_2017_33,VILLENAVE_DORNONINRAE,33550001,-0.576667,44.79,25,33
VILLENEUVELESMAGINRAE_2017_34,VILLENEUVELESMAGINRAE,34337001,3.853833,43.538167,20,34
VILLENEUVESURLOT_2017_47,VILLENEUVESURLOT,47323002,0.705,44.4,60,47
VILLETTE_2017_54,VILLETTE,75119002,2.336667,48.868333,57,75
VILLEVIEILLE_2017_30,VILLEVIEILLE,30352002,4.090833,43.795167,41,30
VILLIERSLEBACLE2_2017_91,VILLIERSLEBACLE2,91679002,2.116167,48.735333,161,91
VINSOBRES_2017_26,VINSOBRES,26377002,5.058333,44.283333,210,26
VISAN_2017_84,VISAN,84150001,4.9055,44.336667,141,84
YZEURE_2017_03,YZEURE,3321001,3.352833,46.579167,242,3
